LSOA01CD,LSOA01NM,LSOA01NMW,GlobalID,FID_London,FID_digima,fid_,id,ref_no,name,pointx_class,groupname,categoryname,classname,feature_easting,feature_northing,pos_accuracy,uprn,topo_toid,topo_toid_,usrn,usrn_mi,distance,address_detail,street_name,locality,geographic_county,postcode,admin_boundary,telephone_number,provenance,supply_date,Longitude,Latitude
E01000657,Bromley 039D,Bromley 039D,2c120999-04e9-4fb2-847a-f809884267cf,656,8,11017,11017,19951663,Biggin Hill Fire Station,6330414,Public Infrastructure,Central and Local Government,Fire Brigade Stations,541867,159131,1,1E+11,osgb1000006890751,4,20301515,1,22.5,Biggin Hill Fire Station 2,Kingsmead,Biggin Hill,Greater London,TN16 3UB,Bromley London Boro,,London Fire Brigade,2023/3/1,0.034201867,51.31361215
E01001029,Croydon 038B,Croydon 038B,0e6cafd9-9565-4fbe-9f20-fa3ef6318161,1028,68,11083,11083,19951726,Purley Fire Station,6330414,Public Infrastructure,Central and Local Government,Fire Brigade Stations,530721,160856,1,10001000237,osgb5000005174987796,1,20500187,1,23.2,Purley Fire Station 128,Brighton Road,Purley,Greater London,CR8 4DB,Croydon London Boro,,London Fire Brigade,2023/3/1,-0.124999521,51.3317811
E01001097,Croydon 037E,Croydon 037E,2fe3d1ba-e430-49b7-8d03-a91835cd0a00,1096,106,3299,3299,16439723,Purley War Memorial Hospital,5280371,Education and Health,Health Practitioners and Establishments,Hospitals,531431,161871,1,1E+11,osgb1000042247261,4,20500187,1,64,856,Brighton Road,Purley,Greater London,CR8 2YL,Croydon London Boro,2032285400,Wilmington Healthcare Ltd,2023/3/1,-0.114439836,51.34073968
E01004091,Sutton 022A,Sutton 022A,75979da1-245c-4edb-a959-02d7e6e3fb0a,4090,134,5013,5013,20912481,Royal Marsden Hospital (Surrey Branch),5280371,Education and Health,Health Practitioners and Establishments,Hospitals,526085,162041,1,5870119069,osgb1000004271209,17,22605395,1,141.3,,Downs Road,Sutton,Greater London,SM2 5PT,Sutton London Boro,2086426011,Wilmington Healthcare Ltd,2023/3/1,-0.191089633,51.3434765
E01004092,Sutton 022B,Sutton 022B,a0a13bb7-48d8-4b33-8d22-8570ad385fc3,4091,115,4968,4968,20365200,Sutton Hospital,5280371,Education and Health,Health Practitioners and Establishments,Hospitals,526080.7,162260.7,1,5870027664,osgb1000004271212,9,22602231,1,245.3,Sutton Hospital,Cotswold Road,Sutton,Greater London,SM2 5NF,Sutton London Boro,2082962000,Wilmington Healthcare Ltd,2023/3/1,-0.191073595,51.34545197
E01001054,Croydon 030C,Croydon 030C,69223944-1781-482f-8b7d-284d1c3ffe3c,1053,1,11004,11004,19951655,Addington Fire Station,6330414,Public Infrastructure,Central and Local Government,Fire Brigade Stations,537698,163271,1,1E+11,osgb1000006471604,3,20501776,1,35.2,Addington Fire Station 197-199,Lodge Lane,Croydon,Greater London,CR0 0QA,Croydon London Boro,,London Fire Brigade,2023/3/1,-0.023980415,51.3518388
E01004142,Sutton 012D,Sutton 012D,3ae358cc-4924-4c69-ae1c-a896ff100372,4141,294,10962,10962,19938344,Sutton Police Station,6330422,Public Infrastructure,Central and Local Government,Police Stations,526037.2,164014,1,5870047970,osgb1000004279056,4,22605669,1,19.4,Sutton Police Station 6,Carshalton Road,Sutton,Greater London,SM1 4RF,Sutton London Boro,3001231212,London Metropolitan Police,2023/3/1,-0.191077339,51.36121907
E01004174,Sutton 017C,Sutton 017C,a4fc61c7-b93a-4df2-8c26-2303da3a4985,4173,84,11099,11099,19951744,Wallington Fire Station,6330414,Public Infrastructure,Central and Local Government,Fire Brigade Stations,529026,164216,1,5870093672,osgb1000005380139,4,22602109,1,20.3,Wallington Fire Station 19,Belmont Road,Wallington,Greater London,SM6 8TE,Sutton London Boro,,London Fire Brigade,2023/3/1,-0.14809934,51.36236446
E01000680,Bromley 037A,Bromley 037A,e140ffd8-8177-4962-a8ff-e27a211e3389,679,235,8457,8457,127482917,Chelsfield Park Hospital,5280371,Education and Health,Health Practitioners and Establishments,Hospitals,548495,164313,1,1E+11,osgb1000000079233,5,20300719,1,135.8,,Bucks Cross Road,Orpington,Greater London,BR6 7RG,Bromley London Boro,1689877855,Wilmington Healthcare Ltd,2023/3/1,0.131391204,51.35848633
E01001170,Croydon 027E,Croydon 027E,76f9827b-c76d-4f3d-b272-2cf656525446,1169,228,8448,8448,127482672,Southleigh Community Rehabilitation Hospital,5280371,Education and Health,Health Practitioners and Establishments,Hospitals,532451,164355,1,1E+11,osgb1000001766198325,1,20501945,1,45.4,42,Brighton Road,South Croydon,Greater London,CR2 6AA,Croydon London Boro,2086660400,Wilmington Healthcare Ltd,2023/3/1,-0.09888087,51.36282641
E01000683,Bromley 035C,Bromley 035C,38ca1168-f94a-4ef9-88c1-5a0d3622fe63,682,161,5697,5697,78340066,Orpington Hospital,5280371,Education and Health,Health Practitioners and Establishments,Hospitals,545961,164687,1,10003628027,osgb1000007328566,9,20303984,3,67.4,,Sevenoaks Road,Orpington,Greater London,BR6 9JU,Bromley London Boro,1689865911,Wilmington Healthcare Ltd,2023/3/1,0.095176498,51.36250344
E01004159,Sutton 014C,Sutton 014C,19668f60-dff4-4d1b-af11-3cc642891492,4158,80,11095,11095,19951740,Sutton (Surrey) Fire Station,6330414,Public Infrastructure,Central and Local Government,Fire Brigade Stations,524623,164847,1,5870021065,osgb1000042091163,4,22605525,1,36.2,Sutton Fire Station 43,St Dunstans Hill,Cheam,Greater London,SM1 2JX,Sutton London Boro,,London Fire Brigade,2023/3/1,-0.211087473,51.36901729
E01000751,Bromley 036C,Bromley 036C,25b4e230-42cf-422a-b578-161b8ed2f07b,750,147,5102,5102,20913550,The Princess Royal University Hospital,5280371,Education and Health,Health Practitioners and Establishments,Hospitals,543443,165032,1,1E+11,osgb1000001773944906,17,20300069,1,296.4,,Farnborough Common,Orpington,Greater London,BR6 8ND,Bromley London Boro,1689863000,Wilmington Healthcare Ltd,2023/3/1,0.059173524,51.36624433
E01001166,Croydon 024D,Croydon 024D,9996fe36-a02e-4d89-b6ac-75452d2176ca,1165,16,11025,11025,19951672,Croydon Fire Station,6330414,Public Infrastructure,Central and Local Government,Fire Brigade Stations,531995,165038,1,2E+11,osgb1000042249571,20,20501261,1,31.5,Croydon Fire Station 90,Old Town,Croydon,Greater London,CR0 1AR,Croydon London Boro,,London Fire Brigade,2023/3/1,-0.105173804,51.36907055
E01001045,Croydon 027C,Croydon 027C,140f222a-69f0-4663-abb9-34cdaa9f70c5,1044,306,10974,10974,19938373,Croydon Police Station,6330422,Public Infrastructure,Central and Local Government,Police Stations,532637,165258,1,1E+11,osgb1000042283492,5,20502257,1,27.1,Croydon Police Station 71,Park Lane,Croydon,Greater London,CR9 1BP,Croydon London Boro,3001231212,London Metropolitan Police,2023/3/1,-0.095874414,51.37089819
E01000765,Bromley 034D,Bromley 034D,ad6ed533-4503-4c3c-99bd-de57133b1000,764,198,8401,8401,127482780,Priory Hospital Hayes Grove,5280371,Education and Health,Health Practitioners and Establishments,Hospitals,540319.6,165706.2,1,1E+11,osgb1000006786423,5,20303570,1,53,Hayes Grove Priory Hospital,Prestons Road,"Hayes, Bromley",Greater London,BR2 7AS,Bromley London Boro,2084627722,Wilmington Healthcare Ltd,2023/3/1,0.014602566,51.37308184
E01000791,Bromley 029E,Bromley 029E,a69d329e-2ae2-43a1-b213-c59bb3fafd65,790,61,11076,11076,19951719,Orpington Fire Station,6330414,Public Infrastructure,Central and Local Government,Fire Brigade Stations,547011.3,165797.9,1,1E+11,osgb5000005186594457,3,20300005,1,23.2,Orpington Fire Station 13,Avalon Road,Orpington,Greater London,BR6 9AX,Bromley London Boro,,London Fire Brigade,2023/3/1,0.110710373,51.37221458
E01000841,Bromley 030H,Bromley 030H,8334bb72-2100-4cf6-b1d9-afd137c22b00,840,269,10932,10932,19938221,West Wickham Police Station,6330422,Public Infrastructure,Central and Local Government,Police Stations,538238,165937,1,1E+11,osgb1000042353152,3,20301748,1,17.1,9,High Street,West Wickham,Greater London,BR4 0LP,Bromley London Boro,1689891212,London Metropolitan Police,2023/3/1,-0.015194553,51.37566548
E01004195,Sutton 006E,Sutton 006E,e50cf1ba-beeb-4289-82bb-0fb043896134,4194,268,10931,10931,19938219,Worcester Park Police Station,6330422,Public Infrastructure,Central and Local Government,Police Stations,522362,165966,1,5870003969,osgb1000041938494,3,22601354,1,21.9,Police Station 154,Central Road,Worcester Park,Greater London,KT4 8HH,Sutton London Boro,3001231212,London Metropolitan Police,2023/3/1,-0.243167312,51.37956538
E01004194,Sutton 008E,Sutton 008E,754d5296-4b39-45a7-b396-a467de8d9bac,4193,241,8470,8470,127482830,Spire St Anthony's Hospital,5280371,Education and Health,Health Practitioners and Establishments,Hospitals,523887,166027,1,5870119242,osgb1000042046013,13,22601662,1,153.2,St Marys Ward St Anthonys Hospital 801,London Road,North Cheam,Greater London,SM3 9DW,Sutton London Boro,2083376691,Wilmington Healthcare Ltd,2023/3/1,-0.221244474,51.37978323
E01004128,Sutton 002D,Sutton 002D,2a3084e9-194f-467d-96dc-906e7ca74a21,4127,131,5006,5006,20912283,Queen Mary's Hospital for Children,5280371,Education and Health,Health Practitioners and Establishments,Hospitals,526420,166088,1,0,osgb1000004286811,3,22605653,2,142.6,St. Helier Hospital,Wrythe Lane,Carshalton,Greater London,SM5 1AA,Sutton London Boro,2082962000,Wilmington Healthcare Ltd,2023/3/1,-0.184845156,51.37977361
E01004128,Sutton 002D,Sutton 002D,2a3084e9-194f-467d-96dc-906e7ca74a21,4127,148,5103,5103,20913559,St Helier Hospital,5280371,Education and Health,Health Practitioners and Establishments,Hospitals,526504,166150,1,5870054822,osgb1000004286748,28,22605653,1,46.9,St Helier Hospital,Wrythe Lane,Carshalton,Greater London,SM5 1AA,Sutton London Boro,2082962000,Wilmington Healthcare Ltd,2023/3/1,-0.183616751,51.38031212
E01001048,Croydon 020C,Croydon 020C,a973b9a3-90c1-4836-8f7a-d586df05ef82,1047,180,7801,7801,145902212,West Valley Hospital,5280371,Education and Health,Health Practitioners and Establishments,Hospitals,532302,166252,1,10090382437,osgb5000005209703049,1,20501433,1,25.8,Interchange 81-85,Station Road,Croydon,Greater London,CR0 2RD,Croydon London Boro,2037802504,Wilmington Healthcare Ltd,2023/3/1,-0.100314736,51.37990917
E01000769,Bromley 024A,Bromley 024A,51c3cb63-b369-4424-a78b-1d2600a029fb,768,138,5020,5020,20912540,Bethlem Royal Hospital,5280371,Education and Health,Health Practitioners and Establishments,Hospitals,537210,166494,1,1E+11,osgb1000041745471,9,20301962,1,157.2,Bethlem Royal Hospital,Monks Orchard Road,Beckenham,Greater London,BR3 3BX,Bromley London Boro,2032286000,Wilmington Healthcare Ltd,2023/3/1,-0.029740663,51.38091955
E01001134,Croydon 018E,Croydon 018E,fb8c70a7-c126-43b5-b685-0473a08b3129,1133,187,8373,8373,127482955,Shirley Oaks Hospital,5280371,Education and Health,Health Practitioners and Establishments,Hospitals,535356,166598,1,1E+11,osgb1000041654005,4,20500537,1,39.5,,Poppy Lane,Croydon,Greater London,CR9 8AB,Croydon London Boro,2086552255,Wilmington Healthcare Ltd,2023/3/1,-0.056326035,51.38229857
E01001118,Croydon 020E,Croydon 020E,392c71a2-9651-4794-936f-e0391b59b124,1117,331,11130,11130,123994586,Berin Underwood House,6330422,Public Infrastructure,Central and Local Government,Police Stations,532336,166893,1,2E+11,osgb5000005107846977,2,20501578,2,15.6,90,Windmill Road,Croydon,Greater London,CR0 2XR,Croydon London Boro,101,London Metropolitan Police,2023/3/1,-0.09958786,51.38566176
E01000992,Croydon 014A,Croydon 014A,9cd07a9c-e58c-4bb1-9b68-aea509f71dee,991,94,11112,11112,19951755,Woodside Fire Station,6330414,Public Infrastructure,Central and Local Government,Fire Brigade Stations,534929,166983,1,1E+11,osgb1000006128916,2,20501153,1,23.9,Fire Station 2,Long Lane,Croydon,Greater London,CR0 7AL,Croydon London Boro,,London Fire Brigade,2023/3/1,-0.062312197,51.3858601
E01001178,Croydon 015D,Croydon 015D,88b0dc27-e72f-4310-92be-6791d3a032b6,1177,125,4997,4997,20912266,Croydon University Hospital,5280371,Education and Health,Health Practitioners and Establishments,Hospitals,531688,167262,1,2E+11,osgb1000042258305,13,20503034,1,201.5,Croydon University Hospital 530,London Road,Thornton Heath,Greater London,CR7 7YE,Croydon London Boro,2084013000,Wilmington Healthcare Ltd,2023/3/1,-0.108757827,51.3891284
E01002921,Kingston upon Thames 011A,Kingston upon Thames 011A,3efb3fbe-39c9-4be9-8fb6-aad704335aa0,2920,79,11094,11094,19951739,Surbiton Fire Station,6330414,Public Infrastructure,Central and Local Government,Fire Brigade Stations,518514,167286,1,128006820,osgb1000041422399,4,21800386,1,31.1,Fire Station 31-33,Ewell Road,Surbiton,Greater London,KT6 6AF,Kingston upon Thames London Boro,,London Fire Brigade,2023/3/1,-0.297993144,51.39224493
E01003375,Merton 022B,Merton 022B,211dac04-4e3b-43f0-9c00-5207f45358ad,3374,171,7604,7604,108408913,Wilson Hospital,5280371,Education and Health,Health Practitioners and Establishments,Hospitals,527876,168073,1,48018788,osgb1000005110060,5,22101689,1,75.6,,Cranmer Road,Mitcham,Greater London,CR4 4TP,Merton London Boro,2086483021,Wilmington Healthcare Ltd,2023/3/1,-0.163220943,51.39728709
E01003469,Merton 020D,Merton 020D,e0d2922c-79ad-48d9-9299-98b2262c4f7c,3468,56,11071,11071,19951714,New Malden Fire Station,6330414,Public Infrastructure,Central and Local Government,Fire Brigade Stations,522158.6,168131.6,1,48009577,osgb1000041518345,3,22100936,1,28.4,Fire Station 180,Burlington Road,New Malden,Greater London,KT3 4RW,Merton London Boro,,London Fire Brigade,2023/3/1,-0.245344594,51.39907266
E01003375,Merton 022B,Merton 022B,211dac04-4e3b-43f0-9c00-5207f45358ad,3374,278,10946,10946,19938295,Mitcham Police Station,6330422,Public Infrastructure,Central and Local Government,Police Stations,527648.6,168329.9,1,48019012,osgb1000005110366,3,22101716,1,23.9,Police Station 58,Cricket Green,Mitcham,Greater London,CR4 4LA,Merton London Boro,3001231212,London Metropolitan Police,2023/3/1,-0.166395584,51.39964699
E01003374,Merton 022A,Merton 022A,7355d107-6fe2-4813-86ff-07a3f18e3050,3373,54,11069,11069,19951712,Mitcham Fire Station,6330414,Public Infrastructure,Central and Local Government,Fire Brigade Stations,527509,168581.6,1,48045304,osgb1000005108887,8,22104032,2,32.6,Mitcham Fire Station 30,Lower Green West,Mitcham,Greater London,CR4 3AF,Merton London Boro,,London Fire Brigade,2023/3/1,-0.168310912,51.4019404
E01000675,Bromley 018B,Bromley 018B,aea21f4e-79c7-40e6-8530-0f0c1c510255,674,307,10975,10975,19938374,Bromley Police Station,6330422,Public Infrastructure,Central and Local Government,Police Stations,540469,168636,1,10013149271,osgb1000001773962811,5,20300424,1,75.2,Bromley Police Station,High Street,Bromley,Greater London,BR1 1ER,Bromley London Boro,3001231212,London Metropolitan Police,2023/3/1,0.01790387,51.3993715
E01002968,Kingston upon Thames 009C,Kingston upon Thames 009C,c371bdad-799a-443e-aee9-2b0a0a9a05d9,2967,299,10967,10967,19938365,Kingston Upon Thames Police Station,6330422,Public Infrastructure,Central and Local Government,Police Stations,517849.1,169055.7,1,128008654,osgb1000003274449,3,21800505,1,17.5,Kingston Police Station 5-15,High Street,Kingston-upon-Thames,Greater London,KT1 1LB,Kingston upon Thames London Boro,3001231212,London Metropolitan Police,2023/3/1,-0.306958942,51.40828948
E01000771,Bromley 017C,Bromley 017C,b3853426-b969-408b-83e0-9cba7bab0e0d,770,104,3291,3291,16439215,Beckenham Beacon,5280371,Education and Health,Health Practitioners and Establishments,Hospitals,536898,169191,1,1E+11,osgb1000006387081,6,20300876,1,51.3,379,Croydon Road,Beckenham,Greater London,BR3 3QL,Bromley London Boro,1689863000,Wilmington Healthcare Ltd,2023/3/1,-0.033182513,51.40523061
E01001087,Croydon 003C,Croydon 003C,65c615e3-db98-4790-9bfc-d1133acf93fd,1086,57,11072,11072,19951715,Norbury Fire Station,6330414,Public Infrastructure,Central and Local Government,Fire Brigade Stations,530759,169205,1,2E+11,osgb1000042239078,2,20502653,1,27.5,Fire Station 1321,London Road,"Norbury, London",Greater London,SW16 4AU,Croydon London Boro,,London Fire Brigade,2023/3/1,-0.121385697,51.40680438
E01000675,Bromley 018B,Bromley 018B,aea21f4e-79c7-40e6-8530-0f0c1c510255,674,11,11020,11020,19951666,Bromley Fire Station,6330414,Public Infrastructure,Central and Local Government,Fire Brigade Stations,540385,169485,1,1E+11,osgb1000006796323,4,20300615,1,16.2,Bromley Fire Station 4,South Street,Bromley,Greater London,BR1 1RH,Bromley London Boro,,London Fire Brigade,2023/3/1,0.017032881,51.40702134
E01000709,Bromley 006A,Bromley 006A,e92502b9-3d5e-41b9-aea0-9b028d06e19d,708,5,11014,11014,19951659,Beckenham Fire Station,6330414,Public Infrastructure,Central and Local Government,Fire Brigade Stations,536834,169498,1,1E+11,osgb1000006386751,9,20301488,1,28,Beckenham Fire Station 8,Beckenham Road,Beckenham,Greater London,BR3 4LR,Bromley London Boro,,London Fire Brigade,2023/3/1,-0.033983747,51.40800486
E01000713,Bromley 012B,Bromley 012B,e7b598bd-1c15-4450-acae-d46bed8fde7f,712,224,8443,8443,127482904,The Sloane Hospital,5280371,Education and Health,Health Practitioners and Establishments,Hospitals,538895,169590,1,1E+11,osgb1000042359975,8,20301599,1,47.7,125,Albemarle Road,Beckenham,Greater London,BR3 5HS,Bromley London Boro,2084666911,Wilmington Healthcare Ltd,2023/3/1,-0.00433424,51.40833121
E01002954,Kingston upon Thames 003D,Kingston upon Thames 003D,d1b8ec38-888d-4990-b80b-71359cf53540,2953,116,4969,4969,20365207,Kingston Hospital,5280371,Education and Health,Health Practitioners and Establishments,Hospitals,519525.6,169822.2,1,1E+11,osgb1000041455518,7,21800429,1,131.5,Kingston Hospital,Galsworthy Road,Kingston-upon-Thames,Greater London,KT2 7QB,Kingston upon Thames London Boro,2085467711,Wilmington Healthcare Ltd,2023/3/1,-0.282607256,51.41482778
E01002953,Kingston upon Thames 002B,Kingston upon Thames 002B,3e5cbe89-f9dd-470d-98a8-6b1a0eec34cb,2952,243,8472,8472,127482933,The New Victoria Hospital,5280371,Education and Health,Health Practitioners and Establishments,Hospitals,521494,169965,1,128005078,osgb1000041384481,18,21800276,1,62.9,182-184,Coombe Lane West,Kingston-upon-Thames,Greater London,KT2 7EG,Kingston upon Thames London Boro,2089499000,Wilmington Healthcare Ltd,2023/3/1,-0.254266244,51.41569304
E01003355,Merton 009A,Merton 009A,0a660473-38ea-4351-80c8-bf6e36b8b086,3354,92,11110,11110,19951753,Wimbledon Fire Station,6330414,Public Infrastructure,Central and Local Government,Fire Brigade Stations,525438,170048,1,48082669,osgb1000041605195,5,22103622,1,28.6,Fire Station 87,Kingston Road,"Wimbledon, London",Greater London,SW19 1JN,Merton London Boro,,London Fire Brigade,2023/3/1,-0.197549908,51.41558074
E01000798,Bromley 009D,Bromley 009D,c2e10011-f73c-47c1-8b17-d56a7c6c5a13,797,330,11126,11126,108381755,Copperfield House Police Station,6330422,Public Infrastructure,Central and Local Government,Police Stations,535402,170284,1,1E+11,osgb1000041661409,5,20303532,2,14.9,"Charles Dickens Terrace, Maple Road",Penge,London,Greater London,SE20 8RE,Bromley London Boro,101,London Metropolitan Police,2023/3/1,-0.054260347,51.41541167
E01003456,Merton 003C,Merton 003C,b4746381-52dd-4fa1-b0aa-ea35fa82ac53,3455,316,10984,10984,19938363,Wimbledon Police Station,6330422,Public Infrastructure,Central and Local Government,Police Stations,525010.4,170658.6,1,48084425,osgb1000041400088,11,22105247,1,17.3,Police Station 15-23,Queen's Road,"Wimbledon, London",Greater London,SW19 8NN,Merton London Boro,3001231212,London Metropolitan Police,2023/3/1,-0.203480609,51.42116275
E01003887,Richmond upon Thames 021B,Richmond upon Thames 021B,ceccea3e-30e2-421f-a869-5c9b106b60fb,3886,289,10957,10957,19938328,Teddington Police Station,6330422,Public Infrastructure,Central and Local Government,Police Stations,515851.6,170854.8,1,1E+11,osgb1000003066960,6,22403720,1,25.5,Teddington Police Station 18,Park Road,Teddington,Greater London,TW11 0AQ,Richmond upon Thames London Boro,3001231212,London Metropolitan Police,2023/3/1,-0.335078217,51.42487073
E01000428,Bexley 027D,Bexley 027D,4935412d-392f-42b3-a782-762ce67f64b7,427,174,7671,7671,110595778,Guy's Cancer Centre,5280371,Education and Health,Health Practitioners and Establishments,Hospitals,546497.2,170947.8,1,10094789132,osgb5000005192206786,1,20100583,1,204.8,Guy's Cancer Centre Queen Marys Hospital,Frognal Avenue,Sidcup,Greater London,DA14 6LT,Bexley London Boro,2083022678,Wilmington Healthcare Ltd,2023/3/1,0.105453072,51.41862102
E01003888,Richmond upon Thames 021C,Richmond upon Thames 021C,4fcf7508-dfd8-4cb8-86a5-4aa5c53687b6,3887,170,7598,7598,104584930,Teddington Memorial Hospital,5280371,Education and Health,Health Practitioners and Establishments,Hospitals,515439,170953,1,1E+11,osgb1000003067230,10,22403537,1,73.6,,Hampton Road,Teddington,Greater London,TW11 0JL,Richmond upon Thames London Boro,2087144000,Wilmington Healthcare Ltd,2023/3/1,-0.340977995,51.42583748
E01004617,Wandsworth 034D,Wandsworth 034D,8bce4555-0d1f-4bb7-a796-389a3cec46fd,4616,149,5104,5104,20913560,St George's Hospital,5280371,Education and Health,Health Practitioners and Establishments,Hospitals,526925,171324,1,1E+11,osgb1000041620171,11,22900509,1,218.2,,Blackshaw Road,London,Greater London,SW17 0QT,Wandsworth London Boro,2086721255,Wilmington Healthcare Ltd,2023/3/1,-0.175721298,51.42671799
E01003006,Kingston upon Thames 001A,Kingston upon Thames 001A,59664b4f-14c2-46e6-95bb-528f1e8d6179,3005,48,11063,11063,19951706,Kingston (London) Fire Station,6330414,Public Infrastructure,Central and Local Government,Fire Brigade Stations,517819,171393,1,128016167,osgb1000003279514,2,21800806,1,24.6,Fire Station 390,Richmond Road,Kingston-upon-Thames,Greater London,KT2 5PR,Kingston upon Thames London Boro,,London Fire Brigade,2023/3/1,-0.306614844,51.42930246
E01000427,Bexley 026C,Bexley 026C,cedca5ad-833a-4818-b7c8-f130ef1cd3b0,426,72,11087,11087,19951730,Sidcup Fire Station,6330414,Public Infrastructure,Central and Local Government,Fire Brigade Stations,545682,171873,1,0,osgb1000042434145,2,20100908,2,18.7,162,Main Road,Sidcup,Greater London,DA14 6NZ,Bexley London Boro,,London Fire Brigade,2023/3/1,0.094118054,51.42714455
E01003812,Richmond upon Thames 018B,Richmond upon Thames 018B,e8e7fe94-fe35-4c73-a31e-33dcacda42dd,3811,83,11098,11098,19951743,Twickenham Fire Station,6330414,Public Infrastructure,Central and Local Government,Fire Brigade Stations,514957,171984,1,1E+11,osgb1000002977893,3,22401854,1,21.5,Twickenham Fire Station 30,South Road,Twickenham,Greater London,TW2 5NT,Richmond upon Thames London Boro,,London Fire Brigade,2023/3/1,-0.347573401,51.43520178
E01003464,Merton 002C,Merton 002C,3796af14-cf21-437e-83e9-7d66e060c9f0,3463,249,8481,8481,127483168,Cancer Centre London,5280371,Education and Health,Health Practitioners and Establishments,Hospitals,523571,172040,1,48055430,osgb1000041395630,4,22104983,1,40.6,49,Parkside,"Wimbledon, London",Greater London,SW19 5NB,Merton London Boro,2082473351,Wilmington Healthcare Ltd,2023/3/1,-0.223690189,51.43389325
E01003348,Lewisham 030B,Lewisham 030B,7149eb51-585b-43bc-812a-0175c6db1a4d,3347,317,10985,10985,19938364,Catford Police Station,6330422,Public Infrastructure,Central and Local Government,Police Stations,538115,172057,1,1E+11,osgb1000041804829,4,22004516,1,36.6,"Catford Police Station, 333",Bromley Road,London,Greater London,SE6 2RP,Lewisham London Boro,3001231212,London Metropolitan Police,2023/3/1,-0.014581447,51.43069075
E01003464,Merton 002C,Merton 002C,3796af14-cf21-437e-83e9-7d66e060c9f0,3463,239,8465,8465,127482922,Parkside Hospital,5280371,Education and Health,Health Practitioners and Establishments,Hospitals,523563,172247,1,48055455,osgb1000041395984,5,22104983,1,45.5,53,Parkside,"Wimbledon, London",Greater London,SW19 5NX,Merton London Boro,2089718000,Wilmington Healthcare Ltd,2023/3/1,-0.223733093,51.4357554
E01004626,Wandsworth 027F,Wandsworth 027F,9efdf333-639c-444f-851c-d36e9288172b,4625,126,4998,4998,20912267,Springfield University Hospital,5280371,Education and Health,Health Practitioners and Establishments,Hospitals,527130,172513,1,1E+11,osgb1000001795031692,44,22902024,1,369.6,Springfield Hospital 61,Glenburnie Road,London,Greater London,SW17 7DJ,Wandsworth London Boro,2035135000,Wilmington Healthcare Ltd,2023/3/1,-0.172347849,51.43735797
E01004549,Wandsworth 027D,Wandsworth 027D,2d743b36-9439-4757-ab5b-388a81fd970a,4548,81,11096,11096,19951741,Tooting Fire Station,6330414,Public Infrastructure,Central and Local Government,Fire Brigade Stations,527798,172583,1,1E+11,osgb1000041638323,3,22906604,1,25.6,Tooting Fire Station 89-91,Trinity Road,London,Greater London,SW17 7SQ,Wandsworth London Boro,,London Fire Brigade,2023/3/1,-0.162717136,51.437837
E01003166,Lambeth 028D,Lambeth 028D,492b3643-0763-46bc-829d-85823b640a91,3165,89,11104,11104,19951749,West Norwood Fire Station,6330414,Public Infrastructure,Central and Local Government,Fire Brigade Stations,531827.4,172618.9,1,1E+11,osgb1000042267252,7,21901036,1,31.9,445,Norwood Road,London,Greater London,SE27 9DN,Lambeth London Boro,,London Fire Brigade,2023/3/1,-0.104765313,51.4372371
E01003229,Lewisham 019D,Lewisham 019D,3fe94363-e331-40d3-8969-911feb803d11,3228,30,11040,11040,19951687,Forest Hill Fire Station,6330414,Public Infrastructure,Central and Local Government,Fire Brigade Stations,535962,173316,1,1E+11,osgb1000006281652,4,22004078,1,28.6,Forest Hill Fire Station 155,Stanstead Road,"Catford, London",Greater London,SE23 1HP,Lewisham London Boro,,London Fire Brigade,2023/3/1,-0.045050111,51.44252482
E01003897,Richmond upon Thames 014D,Richmond upon Thames 014D,9f5a51c8-5a97-43aa-93e1-831fd0398b88,3896,264,10927,10927,19938264,Twickenham Police Station,6330422,Public Infrastructure,Central and Local Government,Police Stations,516191,173423,1,1E+11,osgb1000003171876,5,22403635,1,36,Twickenham Police Station 41,London Road,Twickenham,Greater London,TW1 3SY,Richmond upon Thames London Boro,3001231212,London Metropolitan Police,2023/3/1,-0.329356541,51.44788339
E01004628,Wandsworth 022A,Wandsworth 022A,59f9c559-2505-41a9-aa6d-5c50d02abf5a,4627,245,8474,8474,127482835,Royal Hospital for Neuro-Disability,5280371,Education and Health,Health Practitioners and Establishments,Hospitals,524215,174093,1,121004807,osgb1000041408198,8,22906045,1,51.9,101-119,West Hill,London,Greater London,SW15 3SW,Wandsworth London Boro,2087804500,Wilmington Healthcare Ltd,2023/3/1,-0.213710913,51.4522038
E01004644,Wandsworth 016D,Wandsworth 016D,259a4c1f-7b64-44bd-bb71-a3f3c69f2a7e,4643,169,7596,7596,104584927,Queen Mary's Hospital,5280371,Education and Health,Health Practitioners and Establishments,Hospitals,522261,174418,1,121052762,osgb1000001796512868,5,22904379,1,92.9,Queen Marys Hospital,Roehampton Lane,London,Greater London,SW15 5PN,Wandsworth London Boro,2084876000,Wilmington Healthcare Ltd,2023/3/1,-0.24170598,51.45554946
E01001615,Greenwich 028C,Greenwich 028C,16e2bc7d-6a44-4f84-93fb-52cdb3e433aa,1614,24,11034,11034,19951681,Eltham Fire Station,6330414,Public Infrastructure,Central and Local Government,Fire Brigade Stations,543207.7,174425.2,1,2E+11,osgb1000042497190,4,20800526,1,13,Eltham Fire Station 226,Eltham High Street,Eltham,Greater London,SE9 1BA,Greenwich London Boro,,London Fire Brigade,2023/3/1,0.059584526,51.45070839
E01001609,Greenwich 027D,Greenwich 027D,e55fc3ec-71ab-49a7-aab4-8426088a7991,1608,326,10995,10995,19938284,Eltham Police Station,6330422,Public Infrastructure,Central and Local Government,Police Stations,542730.9,174532.7,1,10010199466,osgb1000042486097,5,20801573,1,43.7,Eltham Police Station,Well Hall Road,Eltham,Greater London,SE9 6SF,Greenwich London Boro,3001231212,London Metropolitan Police,2023/3/1,0.052770792,51.45179469
E01004502,Wandsworth 020B,Wandsworth 020B,ba05f998-6060-4c2b-8926-ae6f127ec896,4501,86,11101,11101,19951746,Wandsworth Fire Station,6330414,Public Infrastructure,Central and Local Government,Fire Brigade Stations,525056,174594,1,121007308,osgb1000041615678,4,22906045,1,22.7,Wandsworth Fire Station 45,West Hill,London,Greater London,SW18 1RB,Wandsworth London Boro,,London Fire Brigade,2023/3/1,-0.201436786,51.45652161
E01004509,Wandsworth 010A,Wandsworth 010A,e4dad00b-0b64-462c-94b6-bfb37b20c6f6,4508,271,10934,10934,19938225,Wandsworth Police Station,6330422,Public Infrastructure,Central and Local Government,Police Stations,525255,174679,1,121008802,osgb5000005112286528,1,22905902,1,90.1,Wandsworth Police Station 146,Wandsworth High Street,London,Greater London,SW18 4JJ,Wandsworth London Boro,3001231212,London Metropolitan Police,2023/3/1,-0.19854395,51.45724161
E01003291,Lewisham 012D,Lewisham 012D,d24d2409-3476-46c3-ba02-3bb08ff12f55,3290,177,7714,7714,110595562,University Hospital Lewisham,5280371,Education and Health,Health Practitioners and Establishments,Hospitals,537874,174681,1,0,osgb1000041787256,5,22004177,2,70.9,University Hospital Lewisham,Lewisham High Street,London,Greater London,SE13 6LH,Lewisham London Boro,2083333000,Wilmington Healthcare Ltd,2023/3/1,-0.017025192,51.45432935
E01002592,Hounslow 022D,Hounslow 022D,e2dd8364-199d-4bb2-bba8-178fae1d1a5a,2591,28,11038,11038,19951685,Feltham Fire Station,6330414,Public Infrastructure,Central and Local Government,Fire Brigade Stations,510292.6,174713,1,1E+11,osgb1000002567956,4,21500428,1,25.3,Feltham Fire Station 101,Faggs Road,Feltham,Greater London,TW14 0LZ,Hounslow London Boro,,London Fire Brigade,2023/3/1,-0.413799027,51.46065654
E01001657,Greenwich 026B,Greenwich 026B,c2b28459-6d8f-4958-b87e-d397bf3c8c2a,1656,50,11065,11065,19951708,Lee Green Fire Station,6330414,Public Infrastructure,Central and Local Government,Fire Brigade Stations,539926.8,174983.6,1,10010195258,osgb1000041831279,4,20800530,1,33.6,Lee Green Fire Station 9,Eltham Road,Eltham,Greater London,SE12 8ES,Greenwich London Boro,,London Fire Brigade,2023/3/1,0.012619827,51.45654567
E01003289,Lewisham 012B,Lewisham 012B,880b0f0a-ad23-417a-a21f-5b0f7e3677bc,3288,97,11115,11115,19951760,Lewisham Fire Station,6330414,Public Infrastructure,Central and Local Government,Fire Brigade Stations,538130.9,175010.2,1,1E+11,osgb1000041916289,9,22004177,1,17.6,Lewisham Fire Station 249-259,Lewisham High Street,"Hither Green, London",Greater London,SE13 6NH,Lewisham London Boro,,London Fire Brigade,2023/3/1,-0.013201738,51.45722509
E01004576,Wandsworth 013D,Wandsworth 013D,c7ddebfb-d730-4be6-b67e-938adb21309e,4575,193,8389,8389,127482771,Priory Hospital Roehampton,5280371,Education and Health,Health Practitioners and Establishments,Hospitals,521495.1,175186.2,1,1E+11,osgb5000005143748916,3,22903996,1,161.7,,Priory Lane,London,Greater London,SW15 5JJ,Wandsworth London Boro,2088768261,Wilmington Healthcare Ltd,2023/3/1,-0.252460364,51.46261837
E01003860,Richmond upon Thames 002E,Richmond upon Thames 002E,265741b4-f24f-4338-a963-be0dd7bd9d18,3859,333,11132,11132,104082103,Richmond Police Station,6330422,Public Infrastructure,Central and Local Government,Police Stations,518136,175279,1,10070711468,osgb1000003403751,3,22405449,3,13.2,18-20,Kew Road,Richmond,Greater London,TW9,Richmond upon Thames London Boro,3001231212,London Metropolitan Police,2023/3/1,-0.300760781,51.46416245
E01000330,Bexley 017D,Bexley 017D,eb11f70d-39e7-485f-b819-7e739ad60182,329,309,10977,10977,19938351,Bexleyheath Police Station,6330422,Public Infrastructure,Central and Local Government,Police Stations,549409,175309,1,1E+11,osgb1000000141926,4,20100050,1,31.8,Bexleyheath Police Station 2,Arnsberg Way,Bexleyheath,Greater London,DA7 4QS,Bexley London Boro,3001231212,London Metropolitan Police,2023/3/1,0.149136653,51.45704856
E01003047,Lambeth 011B,Lambeth 011B,f0165744-e92b-43ac-9ad9-b486bdbb2447,3046,10,11019,11019,19951665,Brixton Fire Station,6330414,Public Infrastructure,Central and Local Government,Fire Brigade Stations,531432,175548,1,1E+11,osgb1000005713687,4,21900641,1,20.6,Brixton Fire Station 84,Gresham Road,London,Greater London,SW9 7NP,Lambeth London Boro,,London Fire Brigade,2023/3/1,-0.109363614,51.46365231
E01004585,Wandsworth 008D,Wandsworth 008D,591b714e-9799-4b06-b7f1-dcf2362947e8,4584,262,10925,10925,19938248,Lavender Hill Police Station,6330422,Public Infrastructure,Central and Local Government,Police Stations,527761,175569,1,1E+11,osgb1000041643128,3,22902838,1,26.9,Lavender Hill Police Station Police 176,Lavender Hill,London,Greater London,SW11 1JX,Wandsworth London Boro,3001231212,London Metropolitan Police,2023/3/1,-0.162172247,51.46468086
E01003039,Lambeth 013C,Lambeth 013C,a77396c0-c84d-416a-8e22-6e03057982cf,3038,15,11024,11024,19951670,Clapham Fire Station,6330414,Public Infrastructure,Central and Local Government,Fire Brigade Stations,529234,175641,1,1E+11,osgb1000005412059,5,21901052,1,18.8,Clapham Fire Station 29,Old Town,London,Greater London,SW4 0JT,Lambeth London Boro,,London Fire Brigade,2023/3/1,-0.140952824,51.46499383
E01003862,Richmond upon Thames 004D,Richmond upon Thames 004D,52ddd2e3-98f2-4433-a933-f8e37a291219,3861,99,11117,11117,19951763,Richmond (London) Fire Station,6330414,Public Infrastructure,Central and Local Government,Fire Brigade Stations,519232.2,175671.9,1,1E+11,osgb1000003497922,4,22404723,1,23.7,Richmond Fire Station 323,Lower Richmond Road,Richmond,Greater London,TW9 4PN,Richmond upon Thames London Boro,,London Fire Brigade,2023/3/1,-0.284855609,51.46746411
E01003047,Lambeth 011B,Lambeth 011B,f0165744-e92b-43ac-9ad9-b486bdbb2447,3046,292,10960,10960,19938339,Brixton Police Station,6330422,Public Infrastructure,Central and Local Government,Police Stations,531175,175679,1,1E+11,osgb1000005713891,6,21900240,1,65.3,Brixton Police Station 367,Brixton Road,London,Greater London,SW9 7DD,Lambeth London Boro,3001231212,London Metropolitan Police,2023/3/1,-0.113012506,51.46488917
E01003199,Lewisham 007A,Lewisham 007A,698019ab-5a69-4fd0-b86b-271baaeaf9ff,3198,323,10992,10992,19938274,Lewisham Police Station,6330422,Public Infrastructure,Central and Local Government,Police Stations,538352,175689,1,10023229040,osgb1000001769493293,2,22004177,1,44.7,Lewisham Police Station 43,Lewisham High Street,"Hither Green, London",Greater London,SE13 5JZ,Lewisham London Boro,3001231212,London Metropolitan Police,2023/3/1,-0.009756119,51.46327102
E01003096,Lambeth 010D,Lambeth 010D,00ca9cb5-7546-4400-b706-2a00b17c01b8,3095,178,7715,7715,110595563,Lambeth Hospital,5280371,Education and Health,Health Practitioners and Establishments,Hospitals,530534,175710,1,1E+11,osgb1000042510520,12,21900834,1,163.9,Lambeth Hospital 108,Landor Road,London,Greater London,SW9 9NU,Lambeth London Boro,2032286157,Wilmington Healthcare Ltd,2023/3/1,-0.122223443,51.46531586
E01002641,Hounslow 018A,Hounslow 018A,3b8bb72f-8d22-497b-847b-f81c56afa329,2640,301,10969,10969,19938367,Hounslow Police Station,6330422,Public Infrastructure,Central and Local Government,Police Stations,513709.7,175729.8,1,1E+11,osgb1000002889110,4,21500771,1,30.5,Hounslow Police Station 5,Montague Road,Hounslow,Greater London,TW3 1LB,Hounslow London Boro,3001231212,London Metropolitan Police,2023/3/1,-0.364306776,51.46911996
E01003202,Lewisham 009C,Lewisham 009C,f5c95ecb-c0da-45fd-9a9c-9975e5d7f765,3201,242,8471,8471,127482833,The Blackheath Hospital,5280371,Education and Health,Health Practitioners and Establishments,Hospitals,539466,175742,1,1E+11,osgb1000041835721,12,22000612,1,26.5,40-42,Lee Terrace,London,Greater London,SE3 9UD,Lewisham London Boro,2083187722,Wilmington Healthcare Ltd,2023/3/1,0.006290547,51.46347427
E01000330,Bexley 017D,Bexley 017D,eb11f70d-39e7-485f-b819-7e739ad60182,329,7,11016,11016,19951662,Bexley Fire Station,6330414,Public Infrastructure,Central and Local Government,Fire Brigade Stations,549705,175771,1,1E+11,osgb1000000139121,7,20100511,1,23.8,Bexley Fire Station 172,Erith Road,Bexleyheath,Greater London,DA7 6BY,Bexley London Boro,,London Fire Brigade,2023/3/1,0.153589409,51.4611216
E01004536,Wandsworth 008B,Wandsworth 008B,86c5ca10-b2a0-477e-9b9a-ce9b398119e3,4535,4,11007,11007,19951658,Battersea Fire Station,6330414,Public Infrastructure,Central and Local Government,Fire Brigade Stations,527260,175829,1,1E+11,osgb1000041643879,4,22901546,1,21.3,11,Este Road,London,Greater London,SW11 2TL,Wandsworth London Boro,,London Fire Brigade,2023/3/1,-0.169287152,51.46713025
E01003198,Lewisham 009A,Lewisham 009A,da27faea-2ff1-4134-beb4-b1bf5f2cd8b9,3197,212,8422,8422,127482721,Blackheath Hospital Outpatient Suite,5280371,Education and Health,Health Practitioners and Establishments,Hospitals,539603.6,175961.2,1,1E+11,osgb1000041834990,4,22000550,1,18.3,Bmi Healthcare,Independents Road,London,Greater London,SE3 9LF,Lewisham London Boro,2082974500,Wilmington Healthcare Ltd,2023/3/1,0.008356493,51.46541015
E01003076,Lambeth 014C,Lambeth 014C,79a9e1a5-1629-44ab-a34c-32686ffc49c8,3075,118,4985,4985,20912378,King's College Hospital,5280371,Education and Health,Health Practitioners and Establishments,Hospitals,532494,176068,1,1E+11,osgb1000001767379058,91,21900453,1,150.9,,Denmark Hill,London,Greater London,SE5 9RS,Lambeth London Boro,2032999000,Wilmington Healthcare Ltd,2023/3/1,-0.09389012,51.46807795
E01002681,Hounslow 014C,Hounslow 014C,7876cdd0-39ed-4f9d-98a9-44b1e6dffbc0,2680,167,7363,7363,103926864,West Middlesex University Hospital,5280371,Education and Health,Health Practitioners and Establishments,Hospitals,516548,176294,1,1E+11,osgb1000003179807,9,21599901,3,29.4,,Twickenham Road,Isleworth,Greater London,TW7 6AF,Hounslow London Boro,2085602121,Wilmington Healthcare Ltd,2023/3/1,-0.323276239,51.47361399
E01002677,Hounslow 015E,Hounslow 015E,b6c3dcbc-0e21-4e57-92b2-1e2bad66faf2,2676,38,11051,11051,19951695,Heston Fire Station,6330414,Public Infrastructure,Central and Local Government,Fire Brigade Stations,515156,176414,1,1E+11,osgb1000003085561,4,21500707,1,27.3,Fire Station Flats 520,London Road,Isleworth,Greater London,TW7 4HR,Hounslow London Boro,,London Fire Brigade,2023/3/1,-0.343270914,51.47497727
E01001682,Greenwich 020D,Greenwich 020D,668a9abb-694c-4453-8b15-c0ab22b5bb01,1681,107,3300,3300,16439898,Memorial Hospital,5280371,Education and Health,Health Practitioners and Establishments,Hospitals,543448,176419,1,1E+11,osgb1000001770585663,13,20801346,2,112.6,Memorial Hospital,Shooters Hill,Plumstead,Greater London,SE18 3RZ,Greenwich London Boro,2088368500,Wilmington Healthcare Ltd,2023/3/1,0.063848631,51.46856333
E01004066,Southwark 025E,Southwark 025E,3ea97345-8d5d-496a-847f-676c417bcb3a,4065,64,11079,11079,19951722,Peckham Fire Station,6330414,Public Infrastructure,Central and Local Government,Fire Brigade Stations,533584,176741,1,2E+11,osgb1000006020943,4,22501935,1,34.5,Peckham Fire Station 78-80,Peckham Road,London,Greater London,SE5 8PR,Southwark London Boro,,London Fire Brigade,2023/3/1,-0.077953021,51.47386984
E01003339,Lewisham 006B,Lewisham 006B,4771f24e-becc-4748-88ca-f78f4477a7b2,3338,55,11070,11070,19951713,New Cross Fire Station,6330414,Public Infrastructure,Central and Local Government,Fire Brigade Stations,535577,176764,1,1E+11,osgb1000041672672,2,22004463,1,26.7,New Cross Fire Station 266,Queens Road,London,Greater London,SE14 5JN,Lewisham London Boro,,London Fire Brigade,2023/3/1,-0.049265693,51.47360262
E01002447,Hillingdon 031C,Hillingdon 031C,250ae228-ffff-40f7-b41b-e1168556fde0,2446,95,11113,11113,19951757,Heathrow Fire Station,6330414,Public Infrastructure,Central and Local Government,Fire Brigade Stations,507134.4,176818.8,1,10003002998,osgb1000002356621,3,21401419,1,631,Heathrow Fire Station Building 450,Northern Perimeter Road,"London Heathrow Airport, Heathrow",Greater London,TW6 2RR,Hillingdon London Boro,,London Fire Brigade,2023/3/1,-0.458604132,51.48019109
E01004009,Southwark 022C,Southwark 022C,f986700a-ad4b-41f4-baf0-5c1c53fd0e35,4008,288,10956,10956,19938324,Peckham Police Station,6330422,Public Infrastructure,Central and Local Government,Police Stations,534489,176826,1,2E+11,osgb1000006163479,6,22501921,1,44,Peckham Police Station 177,Peckham High Street,London,Greater London,SE15 5SL,Southwark London Boro,3001231212,London Metropolitan Police,2023/3/1,-0.064898003,51.47441938
E01001643,Greenwich 018F,Greenwich 018F,68602305-a7d2-44cc-aed5-ddbe52aee4c2,1642,32,11042,11042,19951689,Greenwich Fire Station,6330414,Public Infrastructure,Central and Local Government,Fire Brigade Stations,538050.3,176883.5,1,1E+11,osgb1000042364749,4,20800186,1,11,Greenwich Fire Station 4,Blissett Street,Greenwich,Greater London,SE10 8UP,Greenwich London Boro,,London Fire Brigade,2023/3/1,-0.013629981,51.47407868
E01001950,Hammersmith and Fulham 021D,Hammersmith and Fulham 021D,d8fd56fc-3f7f-4541-a855-a482a32300dc,1949,31,11041,11041,19951688,Fulham Fire Station,6330414,Public Infrastructure,Central and Local Government,Fire Brigade Stations,525034,176973,1,34069488,osgb1000042143308,4,21000359,1,15.8,Fulham Fire Station 685,Fulham Road,London,Greater London,SW6 5UJ,Hammersmith and Fulham London Boro,,London Fire Brigade,2023/3/1,-0.200912774,51.47790724
E01001953,Hammersmith and Fulham 021F,Hammersmith and Fulham 021F,15eb24ad-686b-459d-992b-38971b4232b4,1952,325,10994,10994,19938281,Fulham Police Station,6330422,Public Infrastructure,Central and Local Government,Police Stations,525109,177140.3,1,34168298,osgb5000005275998912,2,21000359,1,26.9,Fulham Police Station,Heckfield Place,London,Greater London,SW6,Hammersmith and Fulham London Boro,3001231212,London Metropolitan Police,2023/3/1,-0.199774186,51.47939423
E01002679,Hounslow 009C,Hounslow 009C,683f76a0-da77-4bd9-af23-e4dc663679a6,2678,210,8420,8420,127482651,Syon Clinic,5280371,Education and Health,Health Practitioners and Establishments,Hospitals,516461,177407,1,1E+11,osgb1000003181678,4,21505052,1,25.3,941,Great West Road,Brentford,Greater London,TW8 9DU,Hounslow London Boro,2083226000,Wilmington Healthcare Ltd,2023/3/1,-0.324161906,51.4836354
E01001701,Greenwich 015C,Greenwich 015C,194433ce-9bb7-4d2f-8ac8-8340efd92d81,1700,185,8275,8275,143166110,Brook House,5280371,Education and Health,Health Practitioners and Establishments,Hospitals,542461,177462.9,1,10010199203,osgb1000007003113,66,20801413,1,114.7,,Stadium Road,"Woolwich, London",Greater London,SE18 4QH,Greenwich London Boro,2088366000,Wilmington Healthcare Ltd,2023/3/1,0.050068963,51.4781928
E01003303,Lewisham 004C,Lewisham 004C,2731569b-28ac-41e1-8e59-3dbb8fd317fc,3302,327,10996,10996,19938287,Deptford Police Station,6330422,Public Infrastructure,Central and Local Government,Police Stations,536766,177467,1,10090783848,osgb1000001769520821,1,22000036,2,10.2,Deptford Police Station 116,Amersham Vale,London,Greater London,SE14 6LG,Lewisham London Boro,3001231212,London Metropolitan Police,2023/3/1,-0.031884523,51.47963399
E01000407,Bexley 005D,Bexley 005D,ff75c4d0-4d53-4a4b-a385-33db42e244e9,406,108,3302,3302,16439983,Erith & District Hospital,5280371,Education and Health,Health Practitioners and Establishments,Hospitals,550561,177576,1,1E+11,osgb1000000205500,9,20101100,1,50.3,193,Park Crescent,Erith,Greater London,DA8 3EE,Bexley London Boro,2083083131,Wilmington Healthcare Ltd,2023/3/1,0.166670508,51.47711292
E01001574,Greenwich 008D,Greenwich 008D,5bd72652-b83f-4d59-8ba0-bd50e567a44b,1573,110,4750,4750,19243650,Goldie Leigh Hospital Site,5280371,Education and Health,Health Practitioners and Establishments,Hospitals,547073,177656,1,1E+11,osgb1000000034858,7,20800933,2,100.7,Goldie Leigh Hospital,Lodge Hill,London,Greater London,SE2,Greenwich London Boro,2083197100,Wilmington Healthcare Ltd,2023/3/1,0.116515134,51.4787486
E01002912,Kensington and Chelsea 020E,Kensington and Chelsea 020E,e694be34-a432-43aa-b71c-3a6b8f2b65f1,2911,112,4957,4957,20365260,Chelsea & Westminster Hospital,5280371,Education and Health,Health Practitioners and Establishments,Hospitals,526369,177712,1,217033201,osgb1000042169624,7,21700218,1,114.9,369,Fulham Road,London,Greater London,SW10 9TR,Kensington and Chelsea London Boro,2033158000,Wilmington Healthcare Ltd,2023/3/1,-0.181435161,51.48425236
E01001890,Hammersmith and Fulham 016C,Hammersmith and Fulham 016C,99201310-5b02-4cb5-a743-3a809b55b570,1889,163,6878,6878,103916527,Charing Cross Hospital,5280371,Education and Health,Health Practitioners and Establishments,Hospitals,523690,177957,1,34118984,osgb1000042065171,14,21000356,1,82.7,,Fulham Palace Road,London,Greater London,W6 8RF,Hammersmith and Fulham London Boro,2033111234,Wilmington Healthcare Ltd,2023/3/1,-0.219912061,51.48704587
E01004664,Westminster 023A,Westminster 023A,e2b69da4-e12c-40f3-8487-2102c34d6878,4663,234,8456,8456,127482815,The Lister Hospital,5280371,Education and Health,Health Practitioners and Establishments,Hospitals,528512,178018,1,1E+11,osgb1000005286279,10,8400724,1,18.5,,Chelsea Bridge Road,London,Greater London,SW1W 8RH,City of Westminster London Boro,2077307733,Wilmington Healthcare Ltd,2023/3/1,-0.150477588,51.48651999
E01003248,Lewisham 002B,Lewisham 002B,e7b716cf-814d-44e3-987b-ee9eedf58e8f,3247,18,11028,11028,19951674,Deptford Fire Station,6330414,Public Infrastructure,Central and Local Government,Fire Brigade Stations,536615,178044,1,1E+11,osgb1000041728132,6,22004367,1,22.2,Deptford Fire Station 186,Evelyn Street,London,Greater London,SE8 5DB,Lewisham London Boro,,London Fire Brigade,2023/3/1,-0.033834461,51.48485563
E01002914,Kensington and Chelsea 019E,Kensington and Chelsea 019E,9ca7d25c-be06-4960-a9f0-8a941e8a1124,2913,12,11021,11021,19951667,Chelsea Fire Station,6330414,Public Infrastructure,Central and Local Government,Fire Brigade Stations,527143.6,178062.7,1,217047143,osgb1000042195073,2,21700299,1,28.3,Fire Station 264,King's Road,London,Greater London,SW3 5UF,Kensington and Chelsea London Boro,,London Fire Brigade,2023/3/1,-0.170159312,51.48723069
E01004040,Southwark 013C,Southwark 013C,f48d5fc9-855e-4e3b-ae3f-1fe13418b1f9,4039,60,11075,11075,19951718,Old Kent Road Fire Station,6330414,Public Infrastructure,Central and Local Government,Fire Brigade Stations,533850,178219,1,2E+11,osgb5000005152930969,1,22501843,1,28.1,Fire Station 405,Old Kent Road,London,Greater London,SE1 5JH,Southwark London Boro,,London Fire Brigade,2023/3/1,-0.073565709,51.48708922
E01002688,Hounslow 002B,Hounslow 002B,737a29d9-1687-43d4-b811-793e6cf397f9,2687,14,11023,11023,19951669,Chiswick Fire Station,6330414,Public Infrastructure,Central and Local Government,Fire Brigade Stations,520271.8,178257.6,1,1E+11,osgb1000041483467,6,21500589,1,27.3,Chiswick Fire Station 2-4,Heathfield Gardens,"Chiswick, London",Greater London,W4 4JY,Hounslow London Boro,,London Fire Brigade,2023/3/1,-0.269016974,51.49048388
E01002914,Kensington and Chelsea 019E,Kensington and Chelsea 019E,9ca7d25c-be06-4960-a9f0-8a941e8a1124,2913,128,5000,5000,20912615,Royal Brompton Hospital,5280371,Education and Health,Health Practitioners and Establishments,Hospitals,527090.4,178341.1,1,217085226,osgb1000042195426,6,21700534,1,36.8,Royal Brompton Hospital,Sydney Street,London,Greater London,SW3 6PY,Kensington and Chelsea London Boro,2073528121,Wilmington Healthcare Ltd,2023/3/1,-0.170824993,51.48974463
E01001663,Greenwich 010B,Greenwich 010B,1ec5f7ed-78d6-4684-a4dd-4339c4d3fd07,1662,21,11031,11031,19951678,East Greenwich Fire Station,6330414,Public Infrastructure,Central and Local Government,Fire Brigade Stations,540490,178392.1,1,1E+11,osgb1000041843829,10,20801725,1,45,East Greenwich Fire Station 325,Woolwich Road,Greenwich,Greater London,SE7 7RF,Greenwich London Boro,,London Fire Brigade,2023/3/1,0.022074619,51.48703514
E01002910,Kensington and Chelsea 019C,Kensington and Chelsea 019C,4338671d-da86-42d8-bfc9-a9814d23ffae,2909,168,7577,7577,103975425,Fulham Wing (Royal Brompton Hospital),5280371,Education and Health,Health Practitioners and Establishments,Hospitals,526873,178394,1,217032984,osgb1000004323266,6,21700218,1,16.2,,Fulham Road,London,Greater London,SW3 6HP,Kensington and Chelsea London Boro,2073528121,Wilmington Healthcare Ltd,2023/3/1,-0.173935652,51.49026882
E01003996,Southwark 014C,Southwark 014C,f889ca02-520f-4679-a37d-bc5cc07804bc,3995,290,10958,10958,19938331,Walworth Police Station,6330422,Public Infrastructure,Central and Local Government,Police Stations,532183,178415,1,2E+11,osgb1000005886797,8,22501649,1,14,12鏈?8鏃?,Manor Place,London,Greater London,SE17 3BB,Southwark London Boro,3001231212,London Metropolitan Police,2023/3/1,-0.097487649,51.48924241
E01002914,Kensington and Chelsea 019E,Kensington and Chelsea 019E,9ca7d25c-be06-4960-a9f0-8a941e8a1124,2913,133,5012,5012,20912480,Royal Marsden Hospital,5280371,Education and Health,Health Practitioners and Establishments,Hospitals,526968.8,178428.8,1,217032983,osgb1000004322712,4,21700218,1,61.2,203,Fulham Road,London,Greater London,SW3 6JJ,Kensington and Chelsea London Boro,2073528171,Wilmington Healthcare Ltd,2023/3/1,-0.172544009,51.49056009
E01002490,Hillingdon 030D,Hillingdon 030D,913792e6-39c9-436d-bccb-a32cd3cbf357,2489,36,11049,11049,19951693,Hayes Fire Station,6330414,Public Infrastructure,Central and Local Government,Fire Brigade Stations,508968,178446,1,1E+11,osgb1000002422367,3,21401739,1,26,Hayes Fire Station 65,Shepiston Lane,Hayes,Greater London,UB3 1LL,Hillingdon London Boro,,London Fire Brigade,2023/3/1,-0.431708368,51.4944666
E01002693,Hounslow 002E,Hounslow 002E,1aec9684-d5e5-4f53-9b7c-ace25bfa8d5b,2692,283,10951,10951,19938303,Chiswick Police Station,6330422,Public Infrastructure,Central and Local Government,Police Stations,521022.8,178460.2,1,0,osgb1000041506819,4,21500698,3,14.2,Chiswick Police Station 205-207,Chiswick High Road,London,Greater London,W4 2DU,Hounslow London Boro,3001231212,London Metropolitan Police,2023/3/1,-0.258135632,51.49214474
E01001677,Greenwich 006E,Greenwich 006E,ac792930-ceb2-474b-a100-1ee5fd5f2fcf,1676,273,10936,10936,19938239,Plumstead Police Station,6330422,Public Infrastructure,Central and Local Government,Police Stations,545609,178480,1,1E+11,osgb1000007369063,5,20801187,1,17.6,Plumstead Police Station 200,Plumstead High Street,Plumstead,Greater London,SE18 1JY,Greenwich London Boro,3001231212,London Metropolitan Police,2023/3/1,0.095787706,51.48653106
E01000402,Bexley 005B,Bexley 005B,6908c0ae-150f-4687-8578-e05c41881a68,401,26,11036,11036,19951683,Erith Fire Station,6330414,Public Infrastructure,Central and Local Government,Fire Brigade Stations,549831.5,178489.3,1,1E+11,osgb1000000150046,8,20101659,1,29.2,Erith Fire Station,Erith Road,Belvedere,Greater London,DA17 6HR,Bexley London Boro,,London Fire Brigade,2023/3/1,0.15656157,51.48551265
E01001675,Greenwich 006D,Greenwich 006D,991fd49a-9a01-428f-8d3c-6b3cd693ef90,1674,66,11081,11081,19951724,Plumstead Fire Station,6330414,Public Infrastructure,Central and Local Government,Fire Brigade Stations,545313,178574,1,10010194134,osgb1000007367853,2,20800879,1,18.8,Plumstead Fire Station 1,Lakedale Road,Plumstead,Greater London,SE18 1PP,Greenwich London Boro,,London Fire Brigade,2023/3/1,0.091566182,51.48745177
E01004666,Westminster 023B,Westminster 023B,0e8af115-7a65-4491-a970-5d646b8c63c3,4665,312,10980,10980,19938359,Belgravia Police Station,6330422,Public Infrastructure,Central and Local Government,Police Stations,528560,178585,1,1E+11,osgb1000005284437,3,8400915,1,43.5,Belgravia Police Station 202-206,Buckingham Palace Road,London,Greater London,SW1W 9SX,City of Westminster London Boro,3001231212,London Metropolitan Police,2023/3/1,-0.149580359,51.49160468
E01001301,Ealing 039B,Ealing 039B,bab1d960-fc37-42a2-a0ba-8fc10658b6c1,1300,160,5696,5696,78340051,Clayponds Hospital,5280371,Education and Health,Health Practitioners and Establishments,Hospitals,518188,178721,1,12126605,osgb1000003406957,4,20602244,1,79.7,,Sterling Place,Ealing,Greater London,W5 4RN,Ealing London Boro,2085604011,Wilmington Healthcare Ltd,2023/3/1,-0.298862344,51.4950876
E01003112,Lambeth 002E,Lambeth 002E,7889ddf9-a4ce-48c3-a87c-10e0478d0e83,3111,49,11064,11064,19951707,Lambeth Fire Station,6330414,Public Infrastructure,Central and Local Government,Fire Brigade Stations,530523.4,178781,1,1E+11,osgb1000005571416,4,21900079,1,13.9,8,Albert Embankment,London,Greater London,SE1 7SP,Lambeth London Boro,,London Fire Brigade,2023/3/1,-0.121242726,51.49291672
E01001898,Hammersmith and Fulham 013C,Hammersmith and Fulham 013C,9374097b-b07c-4bee-8a3a-91fba11887eb,1897,281,10949,10949,19938299,Hammersmith Police Station,6330422,Public Infrastructure,Central and Local Government,Police Stations,523364,178793,1,34026612,osgb5000005277107283,2,21000727,1,28.7,Hammersmith Police Station 226,Shepherd's Bush Road,London,Greater London,W6 7NX,Hammersmith and Fulham London Boro,3001231212,London Metropolitan Police,2023/3/1,-0.224312981,51.49463042
E01002812,Kensington and Chelsea 013A,Kensington and Chelsea 013A,e040caab-508c-4452-ace1-1aecbc7bf200,2811,191,8383,8383,127482867,BUPA Cromwell Hospital,5280371,Education and Health,Health Practitioners and Establishments,Hospitals,525650.2,178901.7,1,217022128,osgb1000004180749,5,21700138,1,36,164-178,Cromwell Road,London,Greater London,SW5 0TU,Kensington and Chelsea London Boro,2074602000,Wilmington Healthcare Ltd,2023/3/1,-0.191358591,51.49510437
E01001869,Hammersmith and Fulham 010D,Hammersmith and Fulham 010D,6502179b-1e2e-4b7c-9c7a-5c85d9b9497a,1868,34,11047,11047,19951691,Hammersmith Fire Station,6330414,Public Infrastructure,Central and Local Government,Fire Brigade Stations,523365,178961,1,34133162,osgb1000001796534382,5,21000727,1,25.1,Hammersmith Fire Station and Community Safety Centre 190-192,Shepherd's Bush Road,London,Greater London,W6 7NL,Hammersmith and Fulham London Boro,,London Fire Brigade,2023/3/1,-0.224239876,51.49614008
E01002817,Kensington and Chelsea 011D,Kensington and Chelsea 011D,2aa71293-f9c3-4b4d-9800-e3e79550fd6c,2816,296,10964,10964,19938346,Kensington Police Station,6330422,Public Infrastructure,Central and Local Government,Police Stations,525188.7,179138.4,1,217025973,osgb1000001795982463,2,21700166,1,27.3,Kensington Police Station 58-72,Earl's Court Road,London,Greater London,W8 6EQ,Kensington and Chelsea London Boro,3001231212,London Metropolitan Police,2023/3/1,-0.197919193,51.49733392
E01003014,Lambeth 001C,Lambeth 001C,5d83460a-3b50-4c58-b200-80b43e87f62e,3013,295,10963,10963,19938345,Kennington Police Station,6330422,Public Infrastructure,Central and Local Government,Police Stations,531183,179317,1,1E+11,osgb1000005729741,4,21900793,1,24,Kennington Police Station 49-51,Kennington Road,London,Greater London,SE1 7QA,Lambeth London Boro,3001231212,London Metropolitan Police,2023/3/1,-0.111547751,51.49758112
E01003013,Lambeth 001B,Lambeth 001B,ebb81d5c-7449-424b-9ef2-782edd25f025,3012,153,5236,5236,32499583,Evelina Children's Hospital,5280371,Education and Health,Health Practitioners and Establishments,Hospitals,530691,179384,1,0,osgb1000001769596311,2,21900829,3,49.3,249,Westminster Bridge Road,London,Greater London,SE1 7EH,Lambeth London Boro,2071887188,Wilmington Healthcare Ltd,2023/3/1,-0.118606681,51.49829708
E01004731,Westminster 020A,Westminster 020A,c848aba7-f6b7-4c68-ae9b-30a544220c75,4730,329,11123,11123,21708623,Metropolitan Police Headquarters,6330422,Public Infrastructure,Central and Local Government,Police Stations,529684.1,179407,1,1E+11,osgb5000005298036194,2,8400269,1,57.7,22,Victoria Street,London,Greater London,SW1H 0AT,City of Westminster London Boro,2072301212,London Metropolitan Police,2023/3/1,-0.13309575,51.49873545
E01004690,Westminster 019D,Westminster 019D,2dc4409e-d0c9-428f-ae46-f7dd4bfa153b,4689,259,8975,8975,168649532,Cleveland Clinic London,5280371,Education and Health,Health Practitioners and Establishments,Hospitals,528586,179438,1,1E+11,osgb1000005288377,7,8400099,1,54.8,33,Grosvenor Place,London,Greater London,SW1X 7HY,City of Westminster London Boro,2034237500,Wilmington Healthcare Ltd,2023/3/1,-0.148895386,51.49926465
E01003013,Lambeth 001B,Lambeth 001B,ebb81d5c-7449-424b-9ef2-782edd25f025,3012,145,5100,5100,20913544,St Thomas' Hospital,5280371,Education and Health,Health Practitioners and Establishments,Hospitals,530703,179517,1,1E+11,osgb1000005572715,13,21901482,1,136.1,St Thomas' Hospital 249,Westminster Bridge Road,London,Greater London,SE1 7EH,Lambeth London Boro,2071887188,Wilmington Healthcare Ltd,2023/3/1,-0.118384658,51.49948956
E01003937,Southwark 009B,Southwark 009B,b3633a46-6454-4338-bbc3-acf22b91dda6,3936,315,10983,10983,19938362,Southwark Police Station,6330422,Public Infrastructure,Central and Local Government,Police Stations,532250,179544,1,2E+11,osgb1000005888304,5,22500284,1,15,Southwark Police Station 323,Borough High Street,London,Greater London,SE1 1JL,Southwark London Boro,3001231212,London Metropolitan Police,2023/3/1,-0.096100385,51.49937273
E01004026,Southwark 003D,Southwark 003D,057ba431-4b5f-4f3c-b82e-188dadc38cc8,4025,19,11029,11029,19951675,Dockhead Fire Station,6330414,Public Infrastructure,Central and Local Government,Fire Brigade Stations,534007,179739,1,2E+11,osgb1000006172774,7,22502734,1,13.6,Dockhead Fire Station 8,Wolseley Street,London,Greater London,SE1 2BP,Southwark London Boro,,London Fire Brigade,2023/3/1,-0.070728947,51.50071156
E01002826,Kensington and Chelsea 008C,Kensington and Chelsea 008C,6d418e0e-854f-4784-8a94-ce3c972c457a,2825,46,11059,11059,19951703,Kensington Fire Station,6330414,Public Infrastructure,Central and Local Government,Fire Brigade Stations,525716,179778,1,217061488,osgb1000042147709,4,21700374,1,27.2,Fire Station 13,Old Court Place,London,Greater London,W8 4PL,Kensington and Chelsea London Boro,,London Fire Brigade,2023/3/1,-0.190099109,51.50296522
E01004279,Tower Hamlets 029C,Tower Hamlets 029C,e34dd655-8710-4c04-b281-d9b91d37c3f0,4278,53,11068,11068,19951711,Millwall Fire Station,6330414,Public Infrastructure,Central and Local Government,Fire Brigade Stations,537136,179834,1,6653281,osgb1000001769602945,5,22701325,2,25.2,43,Westferry Road,Millwall,Greater London,E14 8JH,Tower Hamlets London Boro,,London Fire Brigade,2023/3/1,-0.025640344,51.50081513
E01001340,Ealing 029G,Ealing 029G,6d870264-5f7c-45a5-8d2e-fa45527188cb,1339,173,7663,7663,110595408,St Bernard's Hospital Site,5280371,Education and Health,Health Practitioners and Establishments,Hospitals,514536,179931.3,1,12177291,osgb1000003000072,19,20602324,1,250.6,The Orchard Unit St Bernards Hospital,Uxbridge Road,Southall,Greater London,UB1 3EU,Ealing London Boro,2083548354,Wilmington Healthcare Ltd,2023/3/1,-0.351053825,51.50671638
E01001337,Ealing 029D,Ealing 029D,e8982b63-24ff-4964-a7ee-ab44117d7f9d,1336,135,5015,5015,20912351,Ealing Hospital,5280371,Education and Health,Health Practitioners and Establishments,Hospitals,514864,179969.3,1,12001075,osgb1000002999942,14,20604995,3,81.1,Ealing Hospital,Uxbridge Road,Southall,Greater London,UB1 3HW,Ealing London Boro,2089675000,Wilmington Healthcare Ltd,2023/3/1,-0.346317427,51.50699141
E01003981,Southwark 006F,Southwark 006F,02758e96-a01a-477d-96a0-ba6ffbbe0b07,3980,123,4992,4992,20912396,Guy's Hospital,5280371,Education and Health,Health Practitioners and Establishments,Hospitals,532893,180024,1,2E+11,osgb5000005130862748,5,22503273,3,53,,Great Maze Pond,London,Greater London,SE1 9RT,Southwark London Boro,2071887188,Wilmington Healthcare Ltd,2023/3/1,-0.086661638,51.50353567
E01001354,Ealing 027E,Ealing 027E,4754e27f-39ad-4f7a-bef7-d2539531e545,1353,0,11003,11003,19951654,Acton Fire Station,6330414,Public Infrastructure,Central and Local Government,Fire Brigade Stations,519681,180086,1,12007895,osgb1000003512754,7,20600795,1,18.6,Acton Fire Station 25-27,Gunnersbury Lane,Acton,Greater London,W3 8EA,Ealing London Boro,,London Fire Brigade,2023/3/1,-0.276902793,51.50704198
E01003981,Southwark 006F,Southwark 006F,02758e96-a01a-477d-96a0-ba6ffbbe0b07,3980,227,8447,8447,129797441,The Outpatient & Diagnostic Centre,5280371,Education and Health,Health Practitioners and Establishments,Hospitals,532890,180126,1,2E+11,osgb5000005102842344,2,22501374,3,19.7,The Shard,St. Thomas Street,London,Greater London,SE1 9BS,Southwark London Boro,2038117848,Wilmington Healthcare Ltd,2023/3/1,-0.086666424,51.50445301
E01003939,Southwark 002E,Southwark 002E,da88dc3e-5f6e-4aa7-9d22-9188eb134c08,3938,184,8274,8274,143166109,Private Care at Guy's,5280371,Education and Health,Health Practitioners and Establishments,Hospitals,532730,180143,1,0,osgb1000005890510,7,22501421,3,14,,Great Maze Pond,London,Greater London,SE1 9RT,Southwark London Boro,2074073100,Wilmington Healthcare Ltd,2023/3/1,-0.088963989,51.50464335
E01003981,Southwark 006F,Southwark 006F,02758e96-a01a-477d-96a0-ba6ffbbe0b07,3980,199,8402,8402,127482981,London Womens Clinic,5280371,Education and Health,Health Practitioners and Establishments,Hospitals,532736,180198,1,2E+11,osgb1000005890279,3,22502357,1,12.6,1鏈?鏃?,St Thomas Street,London,Greater London,SE1 9RY,Southwark London Boro,2038193282,Wilmington Healthcare Ltd,2023/3/1,-0.0888569,51.5051362
E01001351,Ealing 025E,Ealing 025E,f9481ed8-1abd-4832-a9db-c2a2099885bb,1350,311,10979,10979,19938358,Acton Police Station,6330422,Public Infrastructure,Central and Local Government,Police Stations,519824,180268,1,12008131,osgb5000005138038114,1,20602317,1,29.6,Acton Police Station 250,High Street,Acton,Greater London,W3 9BH,Ealing London Boro,3001231212,London Metropolitan Police,2023/3/1,-0.27478149,51.50864746
E01004027,Southwark 003E,Southwark 003E,52f8b104-f873-4006-8e26-b0f9afd08351,4026,186,8371,8371,127482761,London Bridge Hospital,5280371,Education and Health,Health Practitioners and Establishments,Hospitals,532940,180336,1,10013525568,osgb1000005890203,5,22502518,1,48.3,27-33,Tooley Street,London,Greater London,SE1 2PR,Southwark London Boro,2074073100,Wilmington Healthcare Ltd,2023/3/1,-0.085867317,51.50632845
E01001215,Ealing 023C,Ealing 023C,f4634e06-3112-404e-a923-ce67128153ee,1214,266,10929,10929,19938267,Southall Police Station,6330422,Public Infrastructure,Central and Local Government,Police Stations,513072,180378,1,12039467,osgb1000002902789,3,20602250,1,30.3,Police Station 67,High Street,Southall,Greater London,UB1 3HG,Ealing London Boro,3001231212,London Metropolitan Police,2023/3/1,-0.37199624,51.51102583
E01002883,Kensington and Chelsea 006B,Kensington and Chelsea 006B,57df2a31-5156-42b7-afda-9c4c34a957cb,2882,275,10938,10938,19938242,Notting Hill Police Station,6330422,Public Infrastructure,Central and Local Government,Police Stations,524791.4,180387.8,1,217049679,osgb1000042121413,4,21700915,1,17.2,Notting Hill Police Station 101,Ladbroke Road,London,Greater London,W11 3PL,Kensington and Chelsea London Boro,3001231212,London Metropolitan Police,2023/3/1,-0.203197846,51.50865033
E01001215,Ealing 023C,Ealing 023C,f4634e06-3112-404e-a923-ce67128153ee,1214,74,11089,11089,19951733,Southall Fire Station,6330414,Public Infrastructure,Central and Local Government,Fire Brigade Stations,512904,180395,1,12133975,osgb1000002794078,5,20602250,1,21.6,Southall Fire Station 17-19,High Street,Southall,Greater London,UB1 3HA,Ealing London Boro,,London Fire Brigade,2023/3/1,-0.374410717,51.51121219
E01001222,Ealing 019A,Ealing 019A,18f05ffa-4b7d-47a7-bc93-6129357822e1,1221,257,8921,8921,164210940,InHealth Diagnostics Centre,5280371,Education and Health,Health Practitioners and Establishments,Hospitals,516934,180532,1,12134117,osgb1000001778937257,4,20602315,1,28,Lovelace House 96-122,Uxbridge Road,West Ealing,Greater London,W13 8RD,Ealing London Boro,3332023188,Wilmington Healthcare Ltd,2023/3/1,-0.31631795,51.51162474
E01001387,Ealing 032E,Ealing 032E,6d761135-0929-4366-9cb1-79096c9ed23a,1386,305,10973,10973,19938372,Ealing Police Station,6330422,Public Infrastructure,Central and Local Government,Police Stations,517368,180587,1,12132981,osgb1000003297771,4,20602194,1,42,"Ealing Police Station, 67-69",Uxbridge Road,Ealing,Greater London,W5,Ealing London Boro,3001231212,London Metropolitan Police,2023/3/1,-0.310048463,51.51202923
E01001222,Ealing 019A,Ealing 019A,18f05ffa-4b7d-47a7-bc93-6129357822e1,1221,20,11030,11030,19951677,Ealing Fire Station,6330414,Public Infrastructure,Central and Local Government,Fire Brigade Stations,517089,180592,1,12132972,osgb1000003297633,4,20602315,1,44.2,Ealing Fire Station 60-64,Uxbridge Road,West Ealing,Greater London,W13 8RA,Ealing London Boro,,London Fire Brigade,2023/3/1,-0.314065461,51.51213196
E01004734,Westminster 018A,Westminster 018A,ad7c97fe-deb3-4116-b41e-650068b4e72f,4733,276,10944,10944,19938290,Charing Cross Police Station,6330422,Public Infrastructure,Central and Local Government,Police Stations,530240,180651,1,1E+11,osgb1000005574326,6,8400736,1,13.2,Charing Cross Police Station,Agar Street,London,Greater London,WC2N 4HN,City of Westminster London Boro,3001231212,London Metropolitan Police,2023/3/1,-0.12463258,51.50978739
E01000004,City of London 001D,City of London 001D,3c493140-0b3f-4b9a-b358-22011dc5fb89,3,96,11114,11114,19951758,Dowgate Fire Station,6330414,Public Infrastructure,Central and Local Government,Fire Brigade Stations,532630,180737,1,2E+11,osgb1000005889782,4,8100545,1,33.9,Dowgate Fire Station 94-95,Upper Thames Street,London,Greater London,EC4R 3UE,City and County of the City of London,,London Fire Brigade,2023/3/1,-0.09018067,51.51000486
E01003515,Newham 036D,Newham 036D,dbd40917-2106-4b41-a498-55286d9359b8,3514,254,8845,8845,162722129,NHS Nightingale Hospital London,5280371,Education and Health,Health Practitioners and Establishments,Hospitals,540898,180751,1,46252014,osgb1000001811123620,7,22207993,1,226.8,"1, Western Gateway",Canning Town,London,Greater London,E16 1XL,Newham London Boro,,Wilmington Healthcare Ltd,2023/3/1,0.028889323,51.50813051
E01004764,Westminster 013C,Westminster 013C,aacd1d6a-d3b1-48dc-9f6d-087e5b7e818f,4763,270,10933,10933,19938223,West End Central Police Station,6330422,Public Infrastructure,Central and Local Government,Police Stations,529081.9,180818.8,1,1E+11,osgb1000042219387,4,8401550,1,15.1,"West End Central Police Station, 27",Savile Row,London,Greater London,W1S,City of Westminster London Boro,3001231212,London Metropolitan Police,2023/3/1,-0.141249962,51.51156087
E01004302,Tower Hamlets 025C,Tower Hamlets 025C,d7ffcdd6-c3ef-4fed-8dff-172285d7e8bf,4301,70,11085,11085,19951728,Shadwell Fire Station,6330414,Public Infrastructure,Central and Local Government,Fire Brigade Stations,535013,180896,1,0,osgb5000005184403467,1,22700152,3,24.5,Shadwell Fire Station 290,Cable Street,London,Greater London,E1 0BX,Tower Hamlets London Boro,,London Fire Brigade,2023/3/1,-0.055801437,51.51086951
E01004255,Tower Hamlets 023C,Tower Hamlets 023C,cca88fb9-4b5e-40a2-b443-d2c9674a422c,4254,322,10991,10991,19938273,Limehouse Police Station,6330422,Public Infrastructure,Central and Local Government,Police Stations,537079,180911,1,6065812,osgb1000041797881,5,22701322,1,24.4,Limehouse Police Station 27-29,West India Dock Road,London,Greater London,E14 8EZ,Tower Hamlets London Boro,3001231212,London Metropolitan Police,2023/3/1,-0.026042509,51.51050728
E01002344,Havering 029B,Havering 029B,6149ae8c-4aff-487b-b7f1-c12621f8fcab,2343,101,11119,11119,19951765,Wennington Fire Station,6330414,Public Infrastructure,Central and Local Government,Fire Brigade Stations,554196.2,180917.3,1,1E+11,osgb1000000437404,8,21320396,1,39.7,Wennington Fire Station,Wennington Road,"Wennington, Rainham",Greater London,RM13 9EE,Havering London Boro,,London Fire Brigade,2023/3/1,0.22043424,51.50615592
E01004734,Westminster 018A,Westminster 018A,ad7c97fe-deb3-4116-b41e-650068b4e72f,4733,73,11088,11088,19951732,Soho Fire Station,6330414,Public Infrastructure,Central and Local Government,Fire Brigade Stations,529856,180942,1,1E+11,osgb1000042218564,3,8400552,1,21.1,Soho Fire Station 126-128,Shaftesbury Avenue,London,Greater London,W1D 5ET,City of Westminster London Boro,,London Fire Brigade,2023/3/1,-0.130055732,51.51249085
E01000005,City of London 001E,City of London 001E,b569093d-788d-41be-816c-d6d7658b2311,4,250,8653,8653,158419328,City of London Medical Centre,5280371,Education and Health,Health Practitioners and Establishments,Hospitals,533608,180958,1,95511695,osgb1000006032694,5,8100161,1,19.9,Medical Centre 11-13,Crosswall,London,Greater London,EC3N 2JY,City and County of the City of London,2074885060,Wilmington Healthcare Ltd,2023/3/1,-0.076012324,51.51176055
E01004257,Tower Hamlets 024D,Tower Hamlets 024D,5d38325b-c653-470e-9bcf-9e05e39c3761,4256,67,11082,11082,19951725,Poplar Fire Station,6330414,Public Infrastructure,Central and Local Government,Fire Brigade Stations,537867,180983,1,6064924,osgb1000006510950,6,22700445,1,16,Poplar Fire Station 168,East India Dock Road,London,Greater London,E14 0BP,Tower Hamlets London Boro,,London Fire Brigade,2023/3/1,-0.014666361,51.51096273
E01001298,Ealing 017E,Ealing 017E,9431044a-cb2d-49d5-bcda-40c21a896ca2,1297,111,4819,4819,20044903,Ealing Day Treatment Centre,5280371,Education and Health,Health Practitioners and Establishments,Hospitals,513130,181125,1,12126662,osgb1000002907782,6,20600259,1,49.2,,Britten Drive,Southall,Greater London,UB1 2SH,Ealing London Boro,2085711143,Wilmington Healthcare Ltd,2023/3/1,-0.370921182,51.51772821
E01001876,Hammersmith and Fulham 001C,Hammersmith and Fulham 001C,ae21115d-8168-4ff5-b73a-0b15b9019123,1875,142,5087,5087,20913653,Queen Charlottes & Chelsea Hospital,5280371,Education and Health,Health Practitioners and Establishments,Hospitals,522398,181185,1,34141001,osgb1000042034612,5,21000285,2,45.2,Hammersmith Hospital,Du Cane Road,London,Greater London,W12 0HS,Hammersmith and Fulham London Boro,2033131111,Wilmington Healthcare Ltd,2023/3/1,-0.237391535,51.51633798
E01004714,Westminster 011B,Westminster 011B,38110605-656a-49e8-b88b-6843dc8ee82a,4713,252,8754,8754,159451627,OneWelbeck,5280371,Education and Health,Health Practitioners and Establishments,Hospitals,528594,181321,1,1E+11,osgb1000005294269,6,8401048,1,39.9,1,Welbeck Street,London,Greater London,W1U,City of Westminster London Boro,2036375820,Wilmington Healthcare Ltd,2023/3/1,-0.148093804,51.51618526
E01000004,City of London 001D,City of London 001D,3c493140-0b3f-4b9a-b358-22011dc5fb89,3,244,8473,8473,127483037,BUPA Health Centre,5280371,Education and Health,Health Practitioners and Establishments,Hospitals,532561.8,181324.3,1,95509897,osgb1000001802834353,2,8100255,1,35.7,95,Gresham Street,London,Greater London,EC2V 7NA,City and County of the City of London,2072002700,Wilmington Healthcare Ltd,2023/3/1,-0.090942117,51.51529869
E01001876,Hammersmith and Fulham 001C,Hammersmith and Fulham 001C,ae21115d-8168-4ff5-b73a-0b15b9019123,1875,120,4988,4988,20912385,Hammersmith Hospital,5280371,Education and Health,Health Practitioners and Establishments,Hospitals,522476,181342,1,0,osgb1000042034352,9,21000285,2,184.8,Hammersmith Hospital,Du Cane Road,London,Greater London,W12 0HS,Hammersmith and Fulham London Boro,2033131000,Wilmington Healthcare Ltd,2023/3/1,-0.236213418,51.51773212
E01004325,Tower Hamlets 021D,Tower Hamlets 021D,297b6f5e-a4e5-48e4-ad11-d31ccbce643f,4324,90,11108,11108,19951751,Whitechapel Fire Station,6330414,Public Infrastructure,Central and Local Government,Fire Brigade Stations,534059,181356,1,6012685,osgb1000006180306,5,22700346,1,23.4,Whitechapel Fire Station 27,Commercial Road,London,Greater London,E1 1LD,Tower Hamlets London Boro,,London Fire Brigade,2023/3/1,-0.069365742,51.51523032
E01004714,Westminster 011B,Westminster 011B,38110605-656a-49e8-b88b-6843dc8ee82a,4713,183,8235,8235,150608080,Schoen Clinic London,5280371,Education and Health,Health Practitioners and Establishments,Hospitals,528462,181362,1,1E+11,osgb1000005295289,4,8400283,1,45.8,66,Wigmore Street,London,Greater London,W1U 2SB,City of Westminster London Boro,2039290801,Wilmington Healthcare Ltd,2023/3/1,-0.149980188,51.51658372
E01004685,Westminster 015D,Westminster 015D,18d3755b-4a99-4ef1-b73d-02b3c358bfe4,4684,150,5106,5106,20913569,St Mary's Hospital,5280371,Education and Health,Health Practitioners and Establishments,Hospitals,526826,181364,1,2E+11,osgb1000042175613,7,8400572,1,21.6,St Marys Hospital,Praed Street,London,Greater London,W2,City of Westminster London Boro,2033126666,Wilmington Healthcare Ltd,2023/3/1,-0.173544826,51.51697098
E01004713,Westminster 011A,Westminster 011A,f2a683df-0a5d-472d-8ece-d7ec64cc8422,4712,190,8381,8381,127482625,Harley Street Diagnostics Centre,5280371,Education and Health,Health Practitioners and Establishments,Hospitals,528703,181452,1,1E+11,osgb1000005294246,3,8400408,1,19.6,17,Harley Street,London,Greater London,W1G 9QH,City of Westminster London Boro,2074676190,Wilmington Healthcare Ltd,2023/3/1,-0.146475958,51.51733775
E01004713,Westminster 011A,Westminster 011A,f2a683df-0a5d-472d-8ece-d7ec64cc8422,4712,236,8458,8458,127482919,Oryon Imaging,5280371,Education and Health,Health Practitioners and Establishments,Hospitals,528617,181458,1,10091964528,osgb1000005294205,8,8400289,2,9.4,Lister House 11-12,Wimpole Street,London,Greater London,W1G 9ST,City of Westminster London Boro,2074678800,Wilmington Healthcare Ltd,2023/3/1,-0.147712539,51.51741124
E01000002,City of London 001B,City of London 001B,937edbc3-c1bf-4d35-b274-b0a1480a7c09,1,320,10988,10988,19938386,City of London Police Headquarters,6330422,Public Infrastructure,Central and Local Government,Police Stations,532363,181472,1,1E+11,osgb1000005892643,7,8100582,1,11.5,Wood Street Police Station 37,Wood Street,London,Greater London,EC2P 2NQ,City and County of the City of London,2076012455,City of London Police,2023/3/1,-0.093750038,51.5166726
E01000004,City of London 001D,City of London 001D,3c493140-0b3f-4b9a-b358-22011dc5fb89,3,321,10989,10989,19938387,Snow Hill Police Station,6330422,Public Infrastructure,Central and Local Government,Police Stations,531735,181498,1,1E+11,osgb1000005732846,23,8100477,1,13.6,Snow Hill Police Station 5,Snow Hill,London,Greater London,EC1A 2DJ,City and County of the City of London,2076012406,City of London Police,2023/3/1,-0.102785863,51.51705297
E01004713,Westminster 011A,Westminster 011A,f2a683df-0a5d-472d-8ece-d7ec64cc8422,4712,182,8040,8040,143165913,Optegra Eye Hospital London,5280371,Education and Health,Health Practitioners and Establishments,Hospitals,528656,181515,1,0,osgb1000005292934,4,8401503,2,12.3,25,Queen Anne Street,London,Greater London,W1G 9HT,City of Westminster London Boro,8082732271,Wilmington Healthcare Ltd,2023/3/1,-0.147129972,51.51791462
E01004714,Westminster 011B,Westminster 011B,38110605-656a-49e8-b88b-6843dc8ee82a,4713,194,8391,8391,127482869,London Welbeck Hospital,5280371,Education and Health,Health Practitioners and Establishments,Hospitals,528495,181547,1,10033599258,osgb1000005293716,6,8401048,1,12.1,27,Welbeck Street,London,Greater London,W1G 8EN,City of Westminster London Boro,2072242242,Wilmington Healthcare Ltd,2023/3/1,-0.149437432,51.51823881
E01004713,Westminster 011A,Westminster 011A,f2a683df-0a5d-472d-8ece-d7ec64cc8422,4712,258,8962,8962,164797295,Harley Street Specialist Hospital,5280371,Education and Health,Health Practitioners and Establishments,Hospitals,528663,181547,1,10033602164,osgb5000005259339139,1,8401503,1,16.3,18-22,Queen Anne Street,London,Greater London,W1G 8HU,City of Westminster London Boro,2045132244,Wilmington Healthcare Ltd,2023/3/1,-0.147017463,51.51820061
E01004714,Westminster 011B,Westminster 011B,38110605-656a-49e8-b88b-6843dc8ee82a,4713,216,8427,8427,127482995,Alliance Medical Imaging Centre,5280371,Education and Health,Health Practitioners and Establishments,Hospitals,528415,181551,1,1E+11,osgb1000005293664,3,8400303,1,19.9,10鏈?1鏃?,Bulstrode Place,London,Greater London,W1U 2HX,City of Westminster London Boro,2079357711,Wilmington Healthcare Ltd,2023/3/1,-0.150588344,51.51829293
E01004713,Westminster 011A,Westminster 011A,f2a683df-0a5d-472d-8ece-d7ec64cc8422,4712,256,8907,8907,166099074,Priory Wellbeing Centre Harley Street,5280371,Education and Health,Health Practitioners and Establishments,Hospitals,528674,181562,1,1E+11,osgb1000005293038,7,8400408,1,15.2,41,Harley Street,London,Greater London,W1G 8QH,City of Westminster London Boro,808238027,Wilmington Healthcare Ltd,2023/3/1,-0.146853538,51.51833291
E01000004,City of London 001D,City of London 001D,3c493140-0b3f-4b9a-b358-22011dc5fb89,3,240,8467,8467,125911083,The Barts Heart Centre,5280371,Education and Health,Health Practitioners and Establishments,Hospitals,531900,181580,1,1E+11,osgb1000005731995,6,8100565,1,51.1,St Bartholomews Hospital,West Smithfield,London,Greater London,EC1A 7BE,City and County of the City of London,2073777000,Wilmington Healthcare Ltd,2023/3/1,-0.100378559,51.5177514
E01000004,City of London 001D,City of London 001D,3c493140-0b3f-4b9a-b358-22011dc5fb89,3,319,10987,10987,19938385,Bishopsgate Police Station,6330422,Public Infrastructure,Central and Local Government,Police Stations,533316,181615,1,1E+11,osgb1000006035036,6,8100056,1,13.2,Bishopsgate Police Station 182,Bishopsgate,London,Greater London,EC2M 4NP,City and County of the City of London,2076012606,City of London Police,2023/3/1,-0.079969343,51.51773365
E01004713,Westminster 011A,Westminster 011A,f2a683df-0a5d-472d-8ece-d7ec64cc8422,4712,221,8440,8440,127482738,London Eye Hospital,5280371,Education and Health,Health Practitioners and Establishments,Hospitals,528564,181636,1,1E+11,osgb1000005293075,5,8400289,1,12,29a,Wimpole Street,London,Greater London,W1G 8GP,City of Westminster London Boro,8006122021,Wilmington Healthcare Ltd,2023/3/1,-0.148411061,51.51902296
E01004765,Westminster 013D,Westminster 013D,a0c08414-fa9c-413a-8f14-caa940a00a05,4764,260,8976,8976,168649533,Portland Place Outpatients Centre,5280371,Education and Health,Health Practitioners and Establishments,Hospitals,528855,181681,1,1E+11,osgb1000005293140,4,8400143,1,20,24,Portland Place,London,Greater London,W1B 1LU,City of Westminster London Boro,2034237500,Wilmington Healthcare Ltd,2023/3/1,-0.144202815,51.51936114
E01004306,Tower Hamlets 015A,Tower Hamlets 015A,06d6afcd-05e9-4c4d-8308-075b54076691,4305,310,10978,10978,19938353,Brick Lane Police Station,6330422,Public Infrastructure,Central and Local Government,Police Stations,533904,181689,1,6001591,osgb1000006034713,2,22700191,1,14.1,Brick Lane Police Station 23-25,Brick Lane,London,Greater London,E1 6PU,Tower Hamlets London Boro,3001231212,London Metropolitan Police,2023/3/1,-0.071471755,51.51825957
E01004713,Westminster 011A,Westminster 011A,f2a683df-0a5d-472d-8ece-d7ec64cc8422,4712,113,4962,4962,20365492,University College Hospital at Westmoreland Street,5280371,Education and Health,Health Practitioners and Establishments,Hospitals,528470,181696,1,1E+11,osgb1000005294085,5,8401609,1,12.1,16-18,Westmoreland Street,London,Greater London,W1G 8PH,City of Westminster London Boro,2034567898,Wilmington Healthcare Ltd,2023/3/1,-0.149743253,51.51958355
E01004757,Westminster 010C,Westminster 010C,5e2d702e-82ac-4bc8-82e7-2b2d197f7118,4756,62,11077,11077,19951720,Paddington Fire Station,6330414,Public Infrastructure,Central and Local Government,Fire Brigade Stations,526160,181709,1,10033599881,osgb1000042174296,4,8400530,1,31.3,Paddington Fire Station 156,Harrow Road,London,Greater London,W2 6NL,City of Westminster London Boro,,London Fire Brigade,2023/3/1,-0.183014747,51.52022051
E01004713,Westminster 011A,Westminster 011A,f2a683df-0a5d-472d-8ece-d7ec64cc8422,4712,233,8455,8455,127482676,The CyberKnife Centre London,5280371,Education and Health,Health Practitioners and Establishments,Hospitals,528611,181746,1,10033536160,osgb1000005292747,4,8400408,1,20.3,81-83,Harley Street,London,Greater London,W1G 8PP,City of Westminster London Boro,2070348588,Wilmington Healthcare Ltd,2023/3/1,-0.147693905,51.52000084
E01004322,Tower Hamlets 017A,Tower Hamlets 017A,8d3d9325-5def-47e6-839a-6998e9729cbf,4321,117,4976,4976,20365624,The Royal London Hospital,5280371,Education and Health,Health Practitioners and Establishments,Hospitals,534687,181756,1,0,osgb5000005126394481,3,22701339,3,35.6,,,London,Greater London,E1,Tower Hamlets London Boro,2073777000,Wilmington Healthcare Ltd,2023/3/1,-0.06016786,51.51867554
E01004702,Westminster 009E,Westminster 009E,c6a3562b-9b83-4734-957e-a964d32c575b,4701,274,10937,10937,19938241,Paddington Green Police Station,6330422,Public Infrastructure,Central and Local Government,Police Stations,526970,181757,1,10033536229,osgb1000042173937,2,8400530,1,45,Paddington Green Police Station 4,Harrow Road,London,Greater London,W2 1XJ,City of Westminster London Boro,3001231212,London Metropolitan Police,2023/3/1,-0.171329052,51.52047058
E01004717,Westminster 011D,Westminster 011D,5cade210-a40e-420c-8bd1-a4209b057f14,4716,202,8407,8407,127482647,Weymouth Street Hospital,5280371,Education and Health,Health Practitioners and Establishments,Hospitals,528404,181765,1,1E+11,osgb1000005293770,3,8401612,1,17.8,42-46,Weymouth Street,London,Greater London,W1G 6NP,City of Westminster London Boro,2079351200,Wilmington Healthcare Ltd,2023/3/1,-0.150668853,51.52021864
E01004713,Westminster 011A,Westminster 011A,f2a683df-0a5d-472d-8ece-d7ec64cc8422,4712,223,8442,8442,127482805,Harley Street Clinic,5280371,Education and Health,Health Practitioners and Establishments,Hospitals,528577,181785,1,10033570169,osgb1000005292750,9,8401612,1,12.8,35,Weymouth Street,London,Greater London,W1G 7EE,City of Westminster London Boro,2079357700,Wilmington Healthcare Ltd,2023/3/1,-0.148169456,51.52035906
E01004713,Westminster 011A,Westminster 011A,f2a683df-0a5d-472d-8ece-d7ec64cc8422,4712,222,8441,8441,127482740,Harley Street Clinic - Cardiac Outpatients Centre,5280371,Education and Health,Health Practitioners and Establishments,Hospitals,528631,181801,1,1E+11,osgb1000005292711,5,8400408,1,15.1,88,Harley Street,London,Greater London,W1G 7HR,City of Westminster London Boro,2076314033,Wilmington Healthcare Ltd,2023/3/1,-0.147385734,51.52049057
E01004661,Westminster 012C,Westminster 012C,d4c6cd31-2037-4599-b1e4-5bf7976b08f5,4660,109,3303,3303,16440161,Western Eye Hospital,5280371,Education and Health,Health Practitioners and Establishments,Hospitals,527550,181813,1,0,osgb1000042195995,4,8401317,3,15.4,153-173,Marylebone Road,London,Greater London,NW1 5QH,City of Westminster London Boro,2033126666,Wilmington Healthcare Ltd,2023/3/1,-0.162953634,51.52084331
E01004713,Westminster 011A,Westminster 011A,f2a683df-0a5d-472d-8ece-d7ec64cc8422,4712,248,8480,8480,127482852,King Edward VII Hospital,5280371,Education and Health,Health Practitioners and Establishments,Hospitals,528428,181828,1,10033529930,osgb1000005293766,3,8401108,1,14.5,5鏈?0鏃?,Beaumont Street,London,Greater London,W1G 6AA,City of Westminster London Boro,2074864411,Wilmington Healthcare Ltd,2023/3/1,-0.150300176,51.52077936
E01004713,Westminster 011A,Westminster 011A,f2a683df-0a5d-472d-8ece-d7ec64cc8422,4712,253,8822,8822,162721991,LOC - Leaders in Oncology Care,5280371,Education and Health,Health Practitioners and Establishments,Hospitals,528589,181830,1,1E+11,osgb1000005292555,4,8400408,2,16.1,95,Harley Street,London,Greater London,W1G 6AF,City of Westminster London Boro,2073172500,Wilmington Healthcare Ltd,2023/3/1,-0.147980178,51.52076074
E01002853,Kensington and Chelsea 001B,Kensington and Chelsea 001B,342aa574-ede2-40cc-bd17-b3341bb3b4c0,2852,58,11073,11073,19951716,North Kensington Fire Station,6330414,Public Infrastructure,Central and Local Government,Fire Brigade Stations,524132.3,181839.3,1,217048601,osgb1000042124087,4,21700912,1,25.1,North Kensington Fire Station 242,Ladbroke Grove,London,Greater London,W10 5LT,Kensington and Chelsea London Boro,,London Fire Brigade,2023/3/1,-0.212179256,51.52184036
E01002705,Islington 022A,Islington 022A,eac11253-b7de-4e0e-9007-6ba065e39540,2704,220,8439,8439,127482736,City Fertility,5280371,Education and Health,Health Practitioners and Establishments,Hospitals,531817,181851,1,5300084450,osgb1000005731822,6,21606010,1,15,16,St John Street,"Islington, London",Greater London,EC1M 4NT,Islington London Boro,2082093226,Wilmington Healthcare Ltd,2023/3/1,-0.101472779,51.52020616
E01002412,Hillingdon 017B,Hillingdon 017B,c97e10ca-2db7-4ea7-8d05-a8f27fe0d4c8,2411,146,5101,5101,20913548,Hillingdon Hospital,5280371,Education and Health,Health Practitioners and Establishments,Hospitals,506870,181856,1,0,osgb1000002316270,3,21401529,2,104.9,,Pield Heath Road,Uxbridge,Greater London,UB8 3NN,Hillingdon London Boro,1895238282,Wilmington Healthcare Ltd,2023/3/1,-0.460885403,51.52551681
E01002401,Hillingdon 024B,Hillingdon 024B,4eead1a8-3f7d-406c-bace-a71eac6f3980,2400,279,10947,10947,19938296,Hayes Police Station,6330422,Public Infrastructure,Central and Local Government,Police Stations,508662.7,181857.5,1,1E+11,osgb1000042675024,5,21402032,1,15.4,Hayes Police Station 755,Uxbridge Road,Hayes,Greater London,UB4 8HU,Hillingdon London Boro,3001231212,London Metropolitan Police,2023/3/1,-0.435054233,51.5251884
E01002906,Kensington and Chelsea 002C,Kensington and Chelsea 002C,708d0f8e-194e-4e29-ab4b-9140f4fbc860,2905,152,5171,5171,22925602,St Charles Hospital,5280371,Education and Health,Health Practitioners and Establishments,Hospitals,523783,181889,1,217118402,osgb1000042072360,10,21700870,1,71.8,,Exmoor Street,London,Greater London,W10 6DZ,Kensington and Chelsea London Boro,2089692488,Wilmington Healthcare Ltd,2023/3/1,-0.217193904,51.52236361
E01000915,Camden 027A,Camden 027A,25ea6563-fa23-4cc1-b8bf-ec35953d4908,914,285,10953,10953,19938313,Holborn Police Station,6330422,Public Infrastructure,Central and Local Government,Police Stations,530710,181890,1,5029559,osgb1000005574844,3,20499045,1,28.3,Holborn Police Station 10,Lamb's Conduit Street,London,Greater London,WC1N 3NR,Camden London Boro,3001231212,London Metropolitan Police,2023/3/1,-0.117404557,51.52081362
E01004673,Westminster 009D,Westminster 009D,4da44220-93c7-4888-bfdc-7522427aeba5,4672,215,8426,8426,127482793,Edward House Outpatient Clinic,5280371,Education and Health,Health Practitioners and Establishments,Hospitals,527405,181897,1,1E+11,osgb1000042197132,2,8400993,1,20.8,7,Lisson Grove,London,Greater London,NW1 6SH,City of Westminster London Boro,2075357900,Wilmington Healthcare Ltd,2023/3/1,-0.165012079,51.52163091
E01004716,Westminster 011C,Westminster 011C,13c78ba3-166e-453b-9fc2-2dcb3d1baf8b,4715,189,8380,8380,127482688,London Medical,5280371,Education and Health,Health Practitioners and Establishments,Hospitals,528356,181905,1,1E+11,osgb1000005293891,2,8401405,1,34.6,49,Marylebone High Street,London,Greater London,W1U 5HJ,City of Westminster London Boro,2074675470,Wilmington Healthcare Ltd,2023/3/1,-0.151309329,51.52148771
E01004673,Westminster 009D,Westminster 009D,4da44220-93c7-4888-bfdc-7522427aeba5,4672,214,8425,8425,127482792,Nightingale Hospital,5280371,Education and Health,Health Practitioners and Establishments,Hospitals,527380,181926,1,0,osgb1000042197133,5,8400016,3,9,11鏈?9鏃?,Lisson Grove,London,Greater London,NW1 6SH,City of Westminster London Boro,2075357700,Wilmington Healthcare Ltd,2023/3/1,-0.165361745,51.52189716
E01004713,Westminster 011A,Westminster 011A,f2a683df-0a5d-472d-8ece-d7ec64cc8422,4712,195,8392,8392,127482870,London Fertility Centre,5280371,Education and Health,Health Practitioners and Establishments,Hospitals,528622,181930,1,1E+11,osgb1000005292482,3,8400408,1,45.7,112a,Harley Street,London,Greater London,W1G 7JH,City of Westminster London Boro,2072240707,Wilmington Healthcare Ltd,2023/3/1,-0.147468314,51.52165193
E01004716,Westminster 011C,Westminster 011C,13c78ba3-166e-453b-9fc2-2dcb3d1baf8b,4715,201,8406,8406,127482641,The London Clinic,5280371,Education and Health,Health Practitioners and Establishments,Hospitals,528470,181939,1,10033533303,osgb1000005293827,8,8400592,1,12.4,3鏈?鏃?,Devonshire Place,London,Greater London,W1G,City of Westminster London Boro,2079354444,Wilmington Healthcare Ltd,2023/3/1,-0.149654696,51.52176737
E01004716,Westminster 011C,Westminster 011C,13c78ba3-166e-453b-9fc2-2dcb3d1baf8b,4715,232,8454,8454,127482675,The London Clinic - Eye Centre,5280371,Education and Health,Health Practitioners and Establishments,Hospitals,528548,181943,1,1E+11,osgb1000005292414,4,8400408,1,20.8,119,Harley Street,London,Greater London,W1G 6AU,City of Westminster London Boro,2079354444,Wilmington Healthcare Ltd,2023/3/1,-0.148529592,51.52178559
E01004713,Westminster 011A,Westminster 011A,f2a683df-0a5d-472d-8ece-d7ec64cc8422,4712,226,8445,8445,127483012,The London Clinic,5280371,Education and Health,Health Practitioners and Establishments,Hospitals,528581,181954,1,1E+11,osgb1000001787346008,2,8400408,1,14,116,Harley Street,London,Greater London,W1G 7JL,City of Westminster London Boro,2079354444,Wilmington Healthcare Ltd,2023/3/1,-0.148050191,51.52187694
E01000914,Camden 028B,Camden 028B,0e696f8c-174e-4c34-b263-a961ac51c7d9,913,203,8409,8409,127482720,Queens Square Imaging Centre,5280371,Education and Health,Health Practitioners and Establishments,Hospitals,530322,181970,1,5110249,osgb1000005575782,4,20499108,1,21.4,8鏈?1鏃?,Queen Square,London,Greater London,WC1N 3AR,Camden London Boro,2078332513,Wilmington Healthcare Ltd,2023/3/1,-0.122964191,51.52162213
E01004290,Tower Hamlets 016D,Tower Hamlets 016D,c1e2820e-cdd9-401f-b133-33ce48de4987,4289,247,8479,8479,127482851,The London Independent Hospital,5280371,Education and Health,Health Practitioners and Establishments,Hospitals,535615,181973,1,6032961,osgb1000041685579,3,22700139,1,26.5,1,Beaumont Square,London,Greater London,E1 4NL,Tower Hamlets London Boro,2077802400,Wilmington Healthcare Ltd,2023/3/1,-0.046717499,51.52040365
E01000914,Camden 028B,Camden 028B,0e696f8c-174e-4c34-b263-a961ac51c7d9,913,121,4989,4989,20912558,Royal London Hospital for Integrated Medicine,5280371,Education and Health,Health Practitioners and Establishments,Hospitals,530432,181986,1,5123747,osgb1000005580003,16,20499044,1,25.9,,Great Ormond Street,London,Greater London,WC1N 3HR,Camden London Boro,8451555000,Wilmington Healthcare Ltd,2023/3/1,-0.121373674,51.52174055
E01004717,Westminster 011D,Westminster 011D,5cade210-a40e-420c-8bd1-a4209b057f14,4716,230,8450,8450,127482811,Princess Grace Hospital,5280371,Education and Health,Health Practitioners and Establishments,Hospitals,528242.9,182000.2,1,1E+11,osgb1000005293922,8,8401484,1,19.3,42-52,Nottingham Place,London,Greater London,W1U 5NY,City of Westminster London Boro,2074861234,Wilmington Healthcare Ltd,2023/3/1,-0.152903974,51.52236893
E01000854,Camden 026D,Camden 026D,b2d5cbfd-5a36-4743-ba86-cae37e8581a5,853,251,8749,8749,160734535,The Royal National ENT & Eastman Dental Hospitals,5280371,Education and Health,Health Practitioners and Establishments,Hospitals,529527,182025,1,5087448,osgb5000005275282507,2,20400955,2,27.1,47-49,Huntley Street,London,Greater London,WC1E,Camden London Boro,2034467890,Wilmington Healthcare Ltd,2023/3/1,-0.134396362,51.52229909
E01000914,Camden 028B,Camden 028B,0e696f8c-174e-4c34-b263-a961ac51c7d9,913,122,4990,4990,20912560,The National Hospital for Neurology & Neurosurgery,5280371,Education and Health,Health Practitioners and Establishments,Hospitals,530389,182033,1,5133289,osgb1000005579996,13,20499108,1,26.8,,Queen Square,London,Greater London,WC1N 3BG,Camden London Boro,8451555000,Wilmington Healthcare Ltd,2023/3/1,-0.121975725,51.52217285
E01000915,Camden 027A,Camden 027A,25ea6563-fa23-4cc1-b8bf-ec35953d4908,914,136,5018,5018,20912532,Great Ormond Street Hospital,5280371,Education and Health,Health Practitioners and Establishments,Hospitals,530533.3,182040.6,1,5090726,osgb1000001802118636,22,20499044,1,23.5,,Great Ormond Street,London,Greater London,WC1N 3JH,Camden London Boro,2074059200,Wilmington Healthcare Ltd,2023/3/1,-0.119894185,51.52220785
E01004716,Westminster 011C,Westminster 011C,13c78ba3-166e-453b-9fc2-2dcb3d1baf8b,4715,197,8400,8400,127482640,The London Clinic,5280371,Education and Health,Health Practitioners and Establishments,Hospitals,528516,182048,1,1E+11,osgb1000005295986,6,8400408,1,20.4,145,Harley Street,London,Greater London,W1G 6BG,City of Westminster London Boro,2079354444,Wilmington Healthcare Ltd,2023/3/1,-0.148952292,51.52273649
E01004715,Westminster 013A,Westminster 013A,217ae8bb-291d-4b87-a6c9-f954ededabb9,4714,246,8475,8475,127482838,The Portland Hospital,5280371,Education and Health,Health Practitioners and Establishments,Hospitals,528835,182077,1,10033525206,osgb1000005296419,2,8400603,1,24.9,209,Great Portland Street,London,Greater London,W1W 5AH,City of Westminster London Boro,2075804400,Wilmington Healthcare Ltd,2023/3/1,-0.144346184,51.52292451
E01004716,Westminster 011C,Westminster 011C,13c78ba3-166e-453b-9fc2-2dcb3d1baf8b,4715,208,8416,8416,127483203,The London Clinic,5280371,Education and Health,Health Practitioners and Establishments,Hospitals,528439,182078,1,10092014650,osgb1000005295988,8,8400408,1,85,The London Clinic Consulting Rooms 149,Harley Street,London,Greater London,W1G 6DE,City of Westminster London Boro,2079354444,Wilmington Healthcare Ltd,2023/3/1,-0.150050624,51.5230236
E01004715,Westminster 013A,Westminster 013A,217ae8bb-291d-4b87-a6c9-f954ededabb9,4714,217,8431,8431,127482660,The Centre for Reproductive & Genetic Health,5280371,Education and Health,Health Practitioners and Establishments,Hospitals,528878,182084,1,1E+11,osgb1000005296421,2,8400603,1,18.3,230-232,Great Portland Street,London,Greater London,W1W 5QS,City of Westminster London Boro,2078372905,Wilmington Healthcare Ltd,2023/3/1,-0.143724165,51.52297762
E01000854,Camden 026D,Camden 026D,b2d5cbfd-5a36-4743-ba86-cae37e8581a5,853,255,8890,8890,161673567,The UCH Macmillan Cancer Centre,5280371,Education and Health,Health Practitioners and Establishments,Hospitals,529474,182116,1,5163365,osgb5000005103245060,1,20400955,1,17.7,The Uclh Cancer Centre,Huntley Street,London,Greater London,WC1E 6AG,Camden London Boro,2034471700,Wilmington Healthcare Ltd,2023/3/1,-0.13512644,51.52312903
E01003601,Newham 028A,Newham 028A,286e77c1-ef36-432d-946c-eaa64916ce32,3600,65,11080,11080,19951723,Plaistow Fire Station,6330414,Public Infrastructure,Central and Local Government,Fire Brigade Stations,541079,182189,1,10008992181,osgb5000005153035231,1,22200973,1,16.1,Plaistow Fire Station 145,Prince Regent Lane,"Plaistow, London",Greater London,E13 8RY,Newham London Boro,,London Fire Brigade,2023/3/1,0.03207079,51.52100719
E01000854,Camden 026D,Camden 026D,b2d5cbfd-5a36-4743-ba86-cae37e8581a5,853,261,8991,8991,166099067,University College Hosptal,5280371,Education and Health,Health Practitioners and Establishments,Hospitals,529406,182206,1,5135658,osgb5000005275282556,3,20400939,2,18.4,Grafton Way Building,1 Grafton Way,London,Greater London,WC1E 6AS,Camden London Boro,2034567890,Wilmington Healthcare Ltd,2023/3/1,-0.136073006,51.52395342
E01000854,Camden 026D,Camden 026D,b2d5cbfd-5a36-4743-ba86-cae37e8581a5,853,159,5452,5452,54286666,Elizabeth Garrett Anderson Wing (University College Hospital),5280371,Education and Health,Health Practitioners and Establishments,Hospitals,529448,182218,1,5090741,osgb1000005431016,12,20400955,3,19.8,235,Euston Road,London,Greater London,NW1 2BU,Camden London Boro,2034567890,Wilmington Healthcare Ltd,2023/3/1,-0.135463535,51.52405165
E01000854,Camden 026D,Camden 026D,b2d5cbfd-5a36-4743-ba86-cae37e8581a5,853,218,8437,8437,127482663,Harley Street at UCH,5280371,Education and Health,Health Practitioners and Establishments,Hospitals,529347,182309,1,5124020,osgb1000001787249633,6,20400889,1,29.1,235,Euston Road,London,Greater London,WC1E 6AS,Camden London Boro,2034471700,Wilmington Healthcare Ltd,2023/3/1,-0.136885177,51.52489257
E01003603,Newham 028B,Newham 028B,d3a29ba3-5ea2-4540-ad94-c9aa003d583d,3602,127,4999,4999,20912438,Newham University Hospital,5280371,Education and Health,Health Practitioners and Establishments,Hospitals,541259,182391,1,46255350,osgb1000041864059,12,22200647,1,110.7,,Glen Road,"Plaistow, London",Greater London,E13 8SL,Newham London Boro,2074764000,Wilmington Healthcare Ltd,2023/3/1,0.034744335,51.52277737
E01003507,Newham 031A,Newham 031A,98fb7b25-da8d-4739-b2c6-456c5b61f414,3506,267,10930,10930,19938271,Plaistow Police Station,6330422,Public Infrastructure,Central and Local Government,Police Stations,540583,182403,1,10009001584,osgb1000041850970,6,22208079,1,24.3,Plaistow Police Station 444,Barking Road,"Plaistow, London",Greater London,E13 8HJ,Newham London Boro,3001231212,London Metropolitan Police,2023/3/1,0.025011916,51.52305391
E01004261,Tower Hamlets 010A,Tower Hamlets 010A,944c33ed-1c1d-4085-a69c-feb3d2b0d164,4260,137,5019,5019,20912537,Mile End Hospital,5280371,Education and Health,Health Practitioners and Establishments,Hospitals,535925,182509,1,6033653,osgb1000041688203,18,22700755,3,82.5,275,Bancroft Road,London,Greater London,E1 4DG,Tower Hamlets London Boro,2073777000,Wilmington Healthcare Ltd,2023/3/1,-0.042045402,51.52514583
E01003538,Newham 029A,Newham 029A,196e1076-223c-492c-97ef-24214dd68e33,3537,22,11032,11032,19951679,East Ham Fire Station,6330414,Public Infrastructure,Central and Local Government,Fire Brigade Stations,542801,182520.5,1,10008993909,osgb1000041879781,6,22200716,1,20.6,East Ham Fire Station 210,High Street South,"East Ham, London",Greater London,E6 3RS,Newham London Boro,,London Fire Brigade,2023/3/1,0.057007789,51.52355346
E01004725,Westminster 003B,Westminster 003B,a3a17433-ba98-4730-ab24-b3e5644882fc,4724,196,8393,8393,127482979,CARE Fertility London,5280371,Education and Health,Health Practitioners and Establishments,Hospitals,527357,182557,1,1E+11,osgb1000005157681,4,8400588,1,41.4,Park Lorne 111,Park Road,London,Greater London,NW8 7JL,City of Westminster London Boro,2076166767,Wilmington Healthcare Ltd,2023/3/1,-0.16546506,51.52757315
E01001780,Hackney 027D,Hackney 027D,02a14d63-762f-471e-819d-d4efe42063e1,1779,71,11086,11086,19951729,Shoreditch Fire Station,6330414,Public Infrastructure,Central and Local Government,Fire Brigade Stations,532911.6,182576.7,1,1E+11,osgb1000005893286,2,20900761,1,25.7,Shoreditch Fire Station 235,Old Street,"Hackney, London",Greater London,EC1V 9EY,Hackney London Boro,,London Fire Brigade,2023/3/1,-0.085431667,51.52647128
E01002410,Hillingdon 017A,Hillingdon 017A,40ddac6d-48b6-4119-8b15-3539669bc6cc,2409,39,11052,11052,19951696,Hillingdon Fire Station,6330414,Public Infrastructure,Central and Local Government,Fire Brigade Stations,507470,182596,1,1E+11,osgb1000002364380,3,21402681,1,29,Hillingdon Fire Station,Uxbridge Road,Uxbridge,Greater London,UB10 0PH,Hillingdon London Boro,,London Fire Brigade,2023/3/1,-0.452014659,51.53205423
E01002701,Islington 023A,Islington 023A,89080dbd-7a0a-4abc-833a-63d185404d84,2700,155,5335,5335,41253469,Richard Desmond Children's Eye Centre,5280371,Education and Health,Health Practitioners and Establishments,Hospitals,532561,182632,1,10012790234,osgb1000001802736538,5,21605651,2,19.7,3,Peerless Street,London,Greater London,EC1V 9EZ,Islington London Boro,2072533411,Wilmington Healthcare Ltd,2023/3/1,-0.090461875,51.52705063
E01000956,Camden 022E,Camden 022E,ff45b01e-af9c-4aa6-a750-d92c8d92efef,955,27,11037,11037,19951684,Euston Fire Station,6330414,Public Infrastructure,Central and Local Government,Fire Brigade Stations,529772,182635,1,5055100,osgb1000005429410,4,20400889,1,30.4,Euston Fire Station 172,Euston Road,London,Greater London,NW1 2DH,Camden London Boro,,London Fire Brigade,2023/3/1,-0.130642359,51.52772489
E01002701,Islington 023A,Islington 023A,89080dbd-7a0a-4abc-833a-63d185404d84,2700,124,4995,4995,20912422,Moorfields Eye Hospital,5280371,Education and Health,Health Practitioners and Establishments,Hospitals,532602,182655,1,10090550189,osgb1000005893373,8,21604520,1,55.2,162-184,City Road,"Islington, London",Greater London,EC1V 2PD,Islington London Boro,2072533411,Wilmington Healthcare Ltd,2023/3/1,-0.089862535,51.5272477
E01004725,Westminster 003B,Westminster 003B,a3a17433-ba98-4730-ab24-b3e5644882fc,4724,219,8438,8438,127482665,The Platinum Medical Centre,5280371,Education and Health,Health Practitioners and Establishments,Hospitals,527133,182690,1,1E+11,osgb1000005157721,5,8400498,2,15.7,15-17,Lodge Road,London,Greater London,NW8 7JA,City of Westminster London Boro,2032143600,Wilmington Healthcare Ltd,2023/3/1,-0.168644401,51.52881885
