fid,id,ref_no,name,pointx_class,groupname,categoryname,classname,feature_easting,feature_northing,pos_accuracy,uprn,topo_toid,topo_toid_version,usrn,usrn_mi,distance,address_detail,street_name,locality,geographic_county,postcode,admin_boundary,telephone_number,provenance,supply_date,Latitude,Longitude
11003,11003,19951654,Acton Fire Station,6330414,Public Infrastructure,Central and Local Government,Fire Brigade Stations,519681,180086,1,12007895,osgb1000003512754,7,20600795,1,18.6,Acton Fire Station 25-27,Gunnersbury Lane,Acton,Greater London,W3 8EA,Ealing London Boro,,London Fire Brigade,2023/3/1,-0.276902793,51.50704198
11004,11004,19951655,Addington Fire Station,6330414,Public Infrastructure,Central and Local Government,Fire Brigade Stations,537698,163271,1,1.00023E+11,osgb1000006471604,3,20501776,1,35.2,Addington Fire Station 197-199,Lodge Lane,Croydon,Greater London,CR0 0QA,Croydon London Boro,,London Fire Brigade,2023/3/1,-0.023980415,51.3518388
11005,11005,19951656,Barking Fire Station,6330414,Public Infrastructure,Central and Local Government,Fire Brigade Stations,544989,183280,1,100053030,osgb1000042430642,11,19900634,1,43.8,Fire Station,Alfreds Way,Barking,Greater London,IG11 0BB,Barking and Dagenham London Boro,,London Fire Brigade,2023/3/1,0.088836224,51.52982114
11006,11006,19951657,Barnet Fire Station,6330414,Public Infrastructure,Central and Local Government,Fire Brigade Stations,525596.3,195828.6,1,200165697,osgb1000042157639,5,20040880,1,31.1,Barnet Fire Station 144,Station Road,"New Barnet, Barnet",Greater London,EN5 1TE,Barnet London Boro,,London Fire Brigade,2023/3/1,-0.186087979,51.6472379
11007,11007,19951658,Battersea Fire Station,6330414,Public Infrastructure,Central and Local Government,Fire Brigade Stations,527260,175829,1,1.00023E+11,osgb1000041643879,4,22901546,1,21.3,11,Este Road,London,Greater London,SW11 2TL,Wandsworth London Boro,,London Fire Brigade,2023/3/1,-0.169287152,51.46713025
11014,11014,19951659,Beckenham Fire Station,6330414,Public Infrastructure,Central and Local Government,Fire Brigade Stations,536834,169498,1,1.00023E+11,osgb1000006386751,9,20301488,1,28,Beckenham Fire Station 8,Beckenham Road,Beckenham,Greater London,BR3 4LR,Bromley London Boro,,London Fire Brigade,2023/3/1,-0.033983747,51.40800486
11015,11015,19951661,Bethnal Green Fire Station,6330414,Public Infrastructure,Central and Local Government,Fire Brigade Stations,535133.1,182792.3,1,6038800,osgb1000041687040,2,22701028,1,33.4,London Fire Brigade 11,Roman Road,London,Greater London,E2 0HU,Tower Hamlets London Boro,,London Fire Brigade,2023/3/1,-0.053344877,51.52788142
11016,11016,19951662,Bexley Fire Station,6330414,Public Infrastructure,Central and Local Government,Fire Brigade Stations,549705,175771,1,1.00023E+11,osgb1000000139121,7,20100511,1,23.8,Bexley Fire Station 172,Erith Road,Bexleyheath,Greater London,DA7 6BY,Bexley London Boro,,London Fire Brigade,2023/3/1,0.153589409,51.4611216
11017,11017,19951663,Biggin Hill Fire Station,6330414,Public Infrastructure,Central and Local Government,Fire Brigade Stations,541867,159131,1,1.00023E+11,osgb1000006890751,4,20301515,1,22.5,Biggin Hill Fire Station 2,Kingsmead,Biggin Hill,Greater London,TN16 3UB,Bromley London Boro,,London Fire Brigade,2023/3/1,0.034201867,51.31361215
11018,11018,19951664,Bow Fire Station,6330414,Public Infrastructure,Central and Local Government,Fire Brigade Stations,536984,183517,1,6719595,osgb5000005212012807,2,22700917,1,13.8,64,Parnell Road,London,Greater London,E3 2RU,Tower Hamlets London Boro,,London Fire Brigade,2023/3/1,-0.026397838,51.53394836
11019,11019,19951665,Brixton Fire Station,6330414,Public Infrastructure,Central and Local Government,Fire Brigade Stations,531432,175548,1,1.00023E+11,osgb1000005713687,4,21900641,1,20.6,Brixton Fire Station 84,Gresham Road,London,Greater London,SW9 7NP,Lambeth London Boro,,London Fire Brigade,2023/3/1,-0.109363614,51.46365231
11020,11020,19951666,Bromley Fire Station,6330414,Public Infrastructure,Central and Local Government,Fire Brigade Stations,540385,169485,1,1.00023E+11,osgb1000006796323,4,20300615,1,16.2,Bromley Fire Station 4,South Street,Bromley,Greater London,BR1 1RH,Bromley London Boro,,London Fire Brigade,2023/3/1,0.017032881,51.40702134
11021,11021,19951667,Chelsea Fire Station,6330414,Public Infrastructure,Central and Local Government,Fire Brigade Stations,527143.6,178062.7,1,217047143,osgb1000042195073,2,21700299,1,28.3,Fire Station 264,King's Road,London,Greater London,SW3 5UF,Kensington and Chelsea London Boro,,London Fire Brigade,2023/3/1,-0.170159312,51.48723069
11022,11022,19951668,Chingford Fire Station,6330414,Public Infrastructure,Central and Local Government,Fire Brigade Stations,538192,194190,1,2.00001E+11,osgb1000006658681,4,22870050,1,39.3,Chingford Fire Station 34,The Ridgeway,Chingford,Greater London,E4 6PP,Waltham Forest London Boro,,London Fire Brigade,2023/3/1,-0.004797499,51.62956028
11023,11023,19951669,Chiswick Fire Station,6330414,Public Infrastructure,Central and Local Government,Fire Brigade Stations,520271.8,178257.6,1,1.00023E+11,osgb1000041483467,6,21500589,1,27.3,Chiswick Fire Station 2-4,Heathfield Gardens,"Chiswick, London",Greater London,W4 4JY,Hounslow London Boro,,London Fire Brigade,2023/3/1,-0.269016974,51.49048388
11024,11024,19951670,Clapham Fire Station,6330414,Public Infrastructure,Central and Local Government,Fire Brigade Stations,529234,175641,1,1.00023E+11,osgb1000005412059,5,21901052,1,18.8,Clapham Fire Station 29,Old Town,London,Greater London,SW4 0JT,Lambeth London Boro,,London Fire Brigade,2023/3/1,-0.140952824,51.46499383
11025,11025,19951672,Croydon Fire Station,6330414,Public Infrastructure,Central and Local Government,Fire Brigade Stations,531995,165038,1,2.00001E+11,osgb1000042249571,20,20501261,1,31.5,Croydon Fire Station 90,Old Town,Croydon,Greater London,CR0 1AR,Croydon London Boro,,London Fire Brigade,2023/3/1,-0.105173804,51.36907055
11026,11026,19951673,Dagenham Fire Station,6330414,Public Infrastructure,Central and Local Government,Fire Brigade Stations,549606,186718,1,100024983,osgb1000000164082,4,19900293,1,28.9,Fire Station,Rainham Road North,Dagenham,Greater London,RM10 7ES,Barking and Dagenham London Boro,,London Fire Brigade,2023/3/1,0.156806762,51.55950891
11028,11028,19951674,Deptford Fire Station,6330414,Public Infrastructure,Central and Local Government,Fire Brigade Stations,536615,178044,1,1.00023E+11,osgb1000041728132,6,22004367,1,22.2,Deptford Fire Station 186,Evelyn Street,London,Greater London,SE8 5DB,Lewisham London Boro,,London Fire Brigade,2023/3/1,-0.033834461,51.48485563
11029,11029,19951675,Dockhead Fire Station,6330414,Public Infrastructure,Central and Local Government,Fire Brigade Stations,534007,179739,1,2.00003E+11,osgb1000006172774,7,22502734,1,13.6,Dockhead Fire Station 8,Wolseley Street,London,Greater London,SE1 2BP,Southwark London Boro,,London Fire Brigade,2023/3/1,-0.070728947,51.50071156
11030,11030,19951677,Ealing Fire Station,6330414,Public Infrastructure,Central and Local Government,Fire Brigade Stations,517089,180592,1,12132972,osgb1000003297633,4,20602315,1,44.2,Ealing Fire Station 60-64,Uxbridge Road,West Ealing,Greater London,W13 8RA,Ealing London Boro,,London Fire Brigade,2023/3/1,-0.314065461,51.51213196
11031,11031,19951678,East Greenwich Fire Station,6330414,Public Infrastructure,Central and Local Government,Fire Brigade Stations,540490,178392.1,1,1.00023E+11,osgb1000041843829,10,20801725,1,45,East Greenwich Fire Station 325,Woolwich Road,Greenwich,Greater London,SE7 7RF,Greenwich London Boro,,London Fire Brigade,2023/3/1,0.022074619,51.48703514
11032,11032,19951679,East Ham Fire Station,6330414,Public Infrastructure,Central and Local Government,Fire Brigade Stations,542801,182520.5,1,10008993909,osgb1000041879781,6,22200716,1,20.6,East Ham Fire Station 210,High Street South,"East Ham, London",Greater London,E6 3RS,Newham London Boro,,London Fire Brigade,2023/3/1,0.057007789,51.52355346
11033,11033,19951680,Edmonton Fire Station,6330414,Public Infrastructure,Central and Local Government,Fire Brigade Stations,533749.4,193809.9,1,207042568,osgb1000006077007,4,20704052,1,28.2,Fire Station 99,Church Street,Edmonton,Greater London,N9 9AA,Enfield London Boro,,London Fire Brigade,2023/3/1,-0.069089458,51.62721833
11034,11034,19951681,Eltham Fire Station,6330414,Public Infrastructure,Central and Local Government,Fire Brigade Stations,543207.7,174425.2,1,2.00001E+11,osgb1000042497190,4,20800526,1,13,Eltham Fire Station 226,Eltham High Street,Eltham,Greater London,SE9 1BA,Greenwich London Boro,,London Fire Brigade,2023/3/1,0.059584526,51.45070839
11035,11035,19951682,Enfield Fire Station,6330414,Public Infrastructure,Central and Local Government,Fire Brigade Stations,534835,197511,1,207154184,osgb1000006230051,7,20702569,1,34.8,Fire Station,Carterhatch Lane,Enfield,Greater London,EN1 4LA,Enfield London Boro,,London Fire Brigade,2023/3/1,-0.051989117,51.66021826
11036,11036,19951683,Erith Fire Station,6330414,Public Infrastructure,Central and Local Government,Fire Brigade Stations,549831.5,178489.3,1,1.00023E+11,osgb1000000150046,8,20101659,1,29.2,Erith Fire Station,Erith Road,Belvedere,Greater London,DA17 6HR,Bexley London Boro,,London Fire Brigade,2023/3/1,0.15656157,51.48551265
11037,11037,19951684,Euston Fire Station,6330414,Public Infrastructure,Central and Local Government,Fire Brigade Stations,529772,182635,1,5055100,osgb1000005429410,4,20400889,1,30.4,Euston Fire Station 172,Euston Road,London,Greater London,NW1 2DH,Camden London Boro,,London Fire Brigade,2023/3/1,-0.130642359,51.52772489
11038,11038,19951685,Feltham Fire Station,6330414,Public Infrastructure,Central and Local Government,Fire Brigade Stations,510292.6,174713,1,1.00023E+11,osgb1000002567956,4,21500428,1,25.3,Feltham Fire Station 101,Faggs Road,Feltham,Greater London,TW14 0LZ,Hounslow London Boro,,London Fire Brigade,2023/3/1,-0.413799027,51.46065654
11039,11039,19951686,Finchley Fire Station,6330414,Public Infrastructure,Central and Local Government,Fire Brigade Stations,526198.7,190359.4,1,200221520,osgb1000004351317,4,20027220,1,30.9,Finchley Fire Station 227,Long Lane,"Finchley, London",Greater London,N3 2RP,Barnet London Boro,,London Fire Brigade,2023/3/1,-0.179354567,51.59795288
11040,11040,19951687,Forest Hill Fire Station,6330414,Public Infrastructure,Central and Local Government,Fire Brigade Stations,535962,173316,1,1.00023E+11,osgb1000006281652,4,22004078,1,28.6,Forest Hill Fire Station 155,Stanstead Road,"Catford, London",Greater London,SE23 1HP,Lewisham London Boro,,London Fire Brigade,2023/3/1,-0.045050111,51.44252482
11041,11041,19951688,Fulham Fire Station,6330414,Public Infrastructure,Central and Local Government,Fire Brigade Stations,525034,176973,1,34069488,osgb1000042143308,4,21000359,1,15.8,Fulham Fire Station 685,Fulham Road,London,Greater London,SW6 5UJ,Hammersmith and Fulham London Boro,,London Fire Brigade,2023/3/1,-0.200912774,51.47790724
11042,11042,19951689,Greenwich Fire Station,6330414,Public Infrastructure,Central and Local Government,Fire Brigade Stations,538050.3,176883.5,1,1.00023E+11,osgb1000042364749,4,20800186,1,11,Greenwich Fire Station 4,Blissett Street,Greenwich,Greater London,SE10 8UP,Greenwich London Boro,,London Fire Brigade,2023/3/1,-0.013629981,51.47407868
11046,11046,19951690,Hainault Fire Station,6330414,Public Infrastructure,Central and Local Government,Fire Brigade Stations,545835,191807,1,1.00023E+11,osgb1000007394522,4,22304684,1,30.6,Hainault Fire Station 386-388,New North Road,"Hainault, Ilford",Greater London,IG6 3DY,Redbridge London Boro,,London Fire Brigade,2023/3/1,0.104558863,51.60622179
11047,11047,19951691,Hammersmith Fire Station,6330414,Public Infrastructure,Central and Local Government,Fire Brigade Stations,523365,178961,1,34133162,osgb1000001796534382,5,21000727,1,25.1,Hammersmith Fire Station and Community Safety Centre 190-192,Shepherd's Bush Road,London,Greater London,W6 7NL,Hammersmith and Fulham London Boro,,London Fire Brigade,2023/3/1,-0.224239876,51.49614008
11048,11048,19951692,Harrow Fire Station,6330414,Public Infrastructure,Central and Local Government,Fire Brigade Stations,513268.4,189262.3,1,2E+11,osgb1000002934240,4,21201353,1,33.8,Harrow Fire Station,Pinner Road,Harrow,Greater London,HA5 5RW,Harrow London Boro,,London Fire Brigade,2023/3/1,-0.366308887,51.59083786
11049,11049,19951693,Hayes Fire Station,6330414,Public Infrastructure,Central and Local Government,Fire Brigade Stations,508968,178446,1,1.00023E+11,osgb1000002422367,3,21401739,1,26,Hayes Fire Station 65,Shepiston Lane,Hayes,Greater London,UB3 1LL,Hillingdon London Boro,,London Fire Brigade,2023/3/1,-0.431708368,51.4944666
11050,11050,19951694,Hendon Fire Station,6330414,Public Infrastructure,Central and Local Government,Fire Brigade Stations,522801.8,189269.2,1,200166892,osgb1000003835498,4,20006280,1,36.2,Hendon Fire Station 91,The Burroughs,"Hendon, London",Greater London,NW4 4BL,Barnet London Boro,,London Fire Brigade,2023/3/1,-0.228753152,51.58890574
11051,11051,19951695,Heston Fire Station,6330414,Public Infrastructure,Central and Local Government,Fire Brigade Stations,515156,176414,1,1.00023E+11,osgb1000003085561,4,21500707,1,27.3,Fire Station Flats 520,London Road,Isleworth,Greater London,TW7 4HR,Hounslow London Boro,,London Fire Brigade,2023/3/1,-0.343270914,51.47497727
11052,11052,19951696,Hillingdon Fire Station,6330414,Public Infrastructure,Central and Local Government,Fire Brigade Stations,507470,182596,1,1.00023E+11,osgb1000002364380,3,21402681,1,29,Hillingdon Fire Station,Uxbridge Road,Uxbridge,Greater London,UB10 0PH,Hillingdon London Boro,,London Fire Brigade,2023/3/1,-0.452014659,51.53205423
11053,11053,19951697,Holloway Fire Station,6330414,Public Infrastructure,Central and Local Government,Fire Brigade Stations,530688,186415,1,5300050556,osgb1000005591431,4,21603387,1,17.9,Holloway Fire Station 264,Hornsey Road,"Islington, London",Greater London,N7 7QT,Islington London Boro,,London Fire Brigade,2023/3/1,-0.116042331,51.56148363
11054,11054,19951698,Homerton Fire Station,6330414,Public Infrastructure,Central and Local Government,Fire Brigade Stations,535729.1,185111.3,1,1.00023E+11,osgb1000006316184,7,20900533,1,30.2,Homerton Fire Station 97,Homerton High Street,"Hackney, London",Greater London,E9 6DL,Hackney London Boro,,London Fire Brigade,2023/3/1,-0.043865081,51.54857768
11055,11055,19951699,Hornchurch Fire Station,6330414,Public Infrastructure,Central and Local Government,Fire Brigade Stations,554005.3,187409.9,1,1.00023E+11,osgb1000000445306,10,21300513,1,22.9,Hornchurch Fire Station 42,North Street,Hornchurch,Greater London,RM11 1SH,Havering London Boro,,London Fire Brigade,2023/3/1,0.220521609,51.56454248
11056,11056,19951700,Hornsey Fire Station,6330414,Public Infrastructure,Central and Local Government,Fire Brigade Stations,529839,189178,1,1.00023E+11,osgb1000005453263,2,21100674,1,22.8,Hornsey Fire Station 108,Park Avenue South,"Hornsey, London",Greater London,N8 8LS,Haringey London Boro,,London Fire Brigade,2023/3/1,-0.127263312,51.58650948
11057,11057,19951701,Ilford Fire Station,6330414,Public Infrastructure,Central and Local Government,Fire Brigade Stations,544966,186874,1,10034922358,osgb1000007195128,4,22306010,1,36.8,Ilford Fire Station 460,High Road,Ilford,Greater London,IG1 1UE,Redbridge London Boro,,London Fire Brigade,2023/3/1,0.08998374,51.56212063
11058,11058,19951702,Islington Fire Station,6330414,Public Infrastructure,Central and Local Government,Fire Brigade Stations,531696,184076,1,5300095067,osgb1000005743993,5,21606199,1,12.2,Islington Fire Station 278,Upper Street,"Islington, London",Greater London,N1 2TZ,Islington London Boro,,London Fire Brigade,2023/3/1,-0.102384105,51.54022965
11059,11059,19951703,Kensington Fire Station,6330414,Public Infrastructure,Central and Local Government,Fire Brigade Stations,525716,179778,1,217061488,osgb1000042147709,4,21700374,1,27.2,Fire Station 13,Old Court Place,London,Greater London,W8 4PL,Kensington and Chelsea London Boro,,London Fire Brigade,2023/3/1,-0.190099109,51.50296522
11060,11060,19951704,Kentish Town Fire Station,6330414,Public Infrastructure,Central and Local Government,Fire Brigade Stations,528933,185393,1,5024751,osgb1000005304468,5,20400091,1,19.6,Kentish Town Fire Station 20,Highgate Road,London,Greater London,NW5 1NS,Camden London Boro,,London Fire Brigade,2023/3/1,-0.141720498,51.55270273
11063,11063,19951706,Kingston (London) Fire Station,6330414,Public Infrastructure,Central and Local Government,Fire Brigade Stations,517819,171393,1,128016167,osgb1000003279514,2,21800806,1,24.6,Fire Station 390,Richmond Road,Kingston-upon-Thames,Greater London,KT2 5PR,Kingston upon Thames London Boro,,London Fire Brigade,2023/3/1,-0.306614844,51.42930246
11064,11064,19951707,Lambeth Fire Station,6330414,Public Infrastructure,Central and Local Government,Fire Brigade Stations,530523.4,178781,1,1.00023E+11,osgb1000005571416,4,21900079,1,13.9,8,Albert Embankment,London,Greater London,SE1 7SP,Lambeth London Boro,,London Fire Brigade,2023/3/1,-0.121242726,51.49291672
11065,11065,19951708,Lee Green Fire Station,6330414,Public Infrastructure,Central and Local Government,Fire Brigade Stations,539926.8,174983.6,1,10010195258,osgb1000041831279,4,20800530,1,33.6,Lee Green Fire Station 9,Eltham Road,Eltham,Greater London,SE12 8ES,Greenwich London Boro,,London Fire Brigade,2023/3/1,0.012619827,51.45654567
11066,11066,19951709,Leyton Fire Station,6330414,Public Infrastructure,Central and Local Government,Fire Brigade Stations,537562,186780,1,1.00024E+11,osgb1000006521045,7,22826500,1,28.8,Leyton Fire Station 90b,Church Road,Leyton,Greater London,E10 5HG,Waltham Forest London Boro,,London Fire Brigade,2023/3/1,-0.016794962,51.56312972
11067,11067,19951710,Mill Hill Fire Station,6330414,Public Infrastructure,Central and Local Government,Fire Brigade Stations,521728.3,192152,1,,osgb1000003749391,2,20021120,2,18.1,Mill Hill Fire Station 10,Hartley Avenue,London,Greater London,NW7 2HX,Barnet London Boro,,London Fire Brigade,2023/3/1,-0.243242781,51.61504616
11068,11068,19951711,Millwall Fire Station,6330414,Public Infrastructure,Central and Local Government,Fire Brigade Stations,537136,179834,1,6653281,osgb1000001769602945,5,22701325,2,25.2,43,Westferry Road,Millwall,Greater London,E14 8JH,Tower Hamlets London Boro,,London Fire Brigade,2023/3/1,-0.025640344,51.50081513
11069,11069,19951712,Mitcham Fire Station,6330414,Public Infrastructure,Central and Local Government,Fire Brigade Stations,527509,168581.6,1,48045304,osgb1000005108887,8,22104032,2,32.6,Mitcham Fire Station 30,Lower Green West,Mitcham,Greater London,CR4 3AF,Merton London Boro,,London Fire Brigade,2023/3/1,-0.168310912,51.4019404
11070,11070,19951713,New Cross Fire Station,6330414,Public Infrastructure,Central and Local Government,Fire Brigade Stations,535577,176764,1,1.00023E+11,osgb1000041672672,2,22004463,1,26.7,New Cross Fire Station 266,Queens Road,London,Greater London,SE14 5JN,Lewisham London Boro,,London Fire Brigade,2023/3/1,-0.049265693,51.47360262
11071,11071,19951714,New Malden Fire Station,6330414,Public Infrastructure,Central and Local Government,Fire Brigade Stations,522158.6,168131.6,1,48009577,osgb1000041518345,3,22100936,1,28.4,Fire Station 180,Burlington Road,New Malden,Greater London,KT3 4RW,Merton London Boro,,London Fire Brigade,2023/3/1,-0.245344594,51.39907266
11072,11072,19951715,Norbury Fire Station,6330414,Public Infrastructure,Central and Local Government,Fire Brigade Stations,530759,169205,1,2.00001E+11,osgb1000042239078,2,20502653,1,27.5,Fire Station 1321,London Road,"Norbury, London",Greater London,SW16 4AU,Croydon London Boro,,London Fire Brigade,2023/3/1,-0.121385697,51.40680438
11073,11073,19951716,North Kensington Fire Station,6330414,Public Infrastructure,Central and Local Government,Fire Brigade Stations,524132.3,181839.3,1,217048601,osgb1000042124087,4,21700912,1,25.1,North Kensington Fire Station 242,Ladbroke Grove,London,Greater London,W10 5LT,Kensington and Chelsea London Boro,,London Fire Brigade,2023/3/1,-0.212179256,51.52184036
11074,11074,19951717,Northolt Fire Station,6330414,Public Infrastructure,Central and Local Government,Fire Brigade Stations,513827,185250,1,12000995,osgb1000002920183,7,20601373,1,24.5,Northolt Fire Station 74,Petts Hill,Northolt,Greater London,UB5 4JT,Ealing London Boro,,London Fire Brigade,2023/3/1,-0.359547914,51.55466305
11075,11075,19951718,Old Kent Road Fire Station,6330414,Public Infrastructure,Central and Local Government,Fire Brigade Stations,533850,178219,1,2.00003E+11,osgb5000005152930969,1,22501843,1,28.1,Fire Station 405,Old Kent Road,London,Greater London,SE1 5JH,Southwark London Boro,,London Fire Brigade,2023/3/1,-0.073565709,51.48708922
11076,11076,19951719,Orpington Fire Station,6330414,Public Infrastructure,Central and Local Government,Fire Brigade Stations,547011.3,165797.9,1,1.00023E+11,osgb5000005186594457,3,20300005,1,23.2,Orpington Fire Station 13,Avalon Road,Orpington,Greater London,BR6 9AX,Bromley London Boro,,London Fire Brigade,2023/3/1,0.110710373,51.37221458
11077,11077,19951720,Paddington Fire Station,6330414,Public Infrastructure,Central and Local Government,Fire Brigade Stations,526160,181709,1,10033599881,osgb1000042174296,4,8400530,1,31.3,Paddington Fire Station 156,Harrow Road,London,Greater London,W2 6NL,City of Westminster London Boro,,London Fire Brigade,2023/3/1,-0.183014747,51.52022051
11078,11078,19951721,Park Royal Fire Station,6330414,Public Infrastructure,Central and Local Government,Fire Brigade Stations,520447,183305,1,202032712,osgb1000042011656,5,20201160,1,22.9,Park Royal Fire Station 15,Waxlow Road,London,Greater London,NW10 7NU,Brent London Boro,,London Fire Brigade,2023/3/1,-0.264771093,51.5358102
11079,11079,19951722,Peckham Fire Station,6330414,Public Infrastructure,Central and Local Government,Fire Brigade Stations,533584,176741,1,2.00003E+11,osgb1000006020943,4,22501935,1,34.5,Peckham Fire Station 78-80,Peckham Road,London,Greater London,SE5 8PR,Southwark London Boro,,London Fire Brigade,2023/3/1,-0.077953021,51.47386984
11080,11080,19951723,Plaistow Fire Station,6330414,Public Infrastructure,Central and Local Government,Fire Brigade Stations,541079,182189,1,10008992181,osgb5000005153035231,1,22200973,1,16.1,Plaistow Fire Station 145,Prince Regent Lane,"Plaistow, London",Greater London,E13 8RY,Newham London Boro,,London Fire Brigade,2023/3/1,0.03207079,51.52100719
11081,11081,19951724,Plumstead Fire Station,6330414,Public Infrastructure,Central and Local Government,Fire Brigade Stations,545313,178574,1,10010194134,osgb1000007367853,2,20800879,1,18.8,Plumstead Fire Station 1,Lakedale Road,Plumstead,Greater London,SE18 1PP,Greenwich London Boro,,London Fire Brigade,2023/3/1,0.091566182,51.48745177
11082,11082,19951725,Poplar Fire Station,6330414,Public Infrastructure,Central and Local Government,Fire Brigade Stations,537867,180983,1,6064924,osgb1000006510950,6,22700445,1,16,Poplar Fire Station 168,East India Dock Road,London,Greater London,E14 0BP,Tower Hamlets London Boro,,London Fire Brigade,2023/3/1,-0.014666361,51.51096273
11083,11083,19951726,Purley Fire Station,6330414,Public Infrastructure,Central and Local Government,Fire Brigade Stations,530721,160856,1,10001000237,osgb5000005174987796,1,20500187,1,23.2,Purley Fire Station 128,Brighton Road,Purley,Greater London,CR8 4DB,Croydon London Boro,,London Fire Brigade,2023/3/1,-0.124999521,51.3317811
11084,11084,19951727,Ruislip Fire Station,6330414,Public Infrastructure,Central and Local Government,Fire Brigade Stations,508405.4,188882.9,1,1.00023E+11,osgb1000002439708,4,21400283,1,27.5,Ruislip Fire Station 2,Bury Street,Ruislip,Greater London,HA4 7TW,Hillingdon London Boro,,London Fire Brigade,2023/3/1,-0.436597137,51.58838325
11085,11085,19951728,Shadwell Fire Station,6330414,Public Infrastructure,Central and Local Government,Fire Brigade Stations,535013,180896,1,,osgb5000005184403467,1,22700152,3,24.5,Shadwell Fire Station 290,Cable Street,London,Greater London,E1 0BX,Tower Hamlets London Boro,,London Fire Brigade,2023/3/1,-0.055801437,51.51086951
11086,11086,19951729,Shoreditch Fire Station,6330414,Public Infrastructure,Central and Local Government,Fire Brigade Stations,532911.6,182576.7,1,1.00023E+11,osgb1000005893286,2,20900761,1,25.7,Shoreditch Fire Station 235,Old Street,"Hackney, London",Greater London,EC1V 9EY,Hackney London Boro,,London Fire Brigade,2023/3/1,-0.085431667,51.52647128
11087,11087,19951730,Sidcup Fire Station,6330414,Public Infrastructure,Central and Local Government,Fire Brigade Stations,545682,171873,1,,osgb1000042434145,2,20100908,2,18.7,162,Main Road,Sidcup,Greater London,DA14 6NZ,Bexley London Boro,,London Fire Brigade,2023/3/1,0.094118054,51.42714455
11088,11088,19951732,Soho Fire Station,6330414,Public Infrastructure,Central and Local Government,Fire Brigade Stations,529856,180942,1,1.00023E+11,osgb1000042218564,3,8400552,1,21.1,Soho Fire Station 126-128,Shaftesbury Avenue,London,Greater London,W1D 5ET,City of Westminster London Boro,,London Fire Brigade,2023/3/1,-0.130055732,51.51249085
11089,11089,19951733,Southall Fire Station,6330414,Public Infrastructure,Central and Local Government,Fire Brigade Stations,512904,180395,1,12133975,osgb1000002794078,5,20602250,1,21.6,Southall Fire Station 17-19,High Street,Southall,Greater London,UB1 3HA,Ealing London Boro,,London Fire Brigade,2023/3/1,-0.374410717,51.51121219
11090,11090,19951734,Southgate Fire Station,6330414,Public Infrastructure,Central and Local Government,Fire Brigade Stations,529705,194071,1,207179185,osgb1000005467586,3,20701608,1,27.8,Fire Station 96,High Street,Southgate,Greater London,N14 6BN,Enfield London Boro,,London Fire Brigade,2023/3/1,-0.127387526,51.63051121
11091,11091,19951736,Stanmore Fire Station,6330414,Public Infrastructure,Central and Local Government,Fire Brigade Stations,517993,190796,1,10002294818,osgb1000003326438,7,21200986,1,28.6,Stanmore Fire Station 650,Honeypot Lane,Stanmore,Greater London,HA7 1JS,Harrow London Boro,,London Fire Brigade,2023/3/1,-0.297622676,51.60365309
11092,11092,19951737,Stoke Newington Fire Station,6330414,Public Infrastructure,Central and Local Government,Fire Brigade Stations,533401.1,186592.8,1,1.00023E+11,osgb1000006051313,5,20900975,1,27.8,Stoke Newington Fire Station 64,Stoke Newington Church Street,"Hackney, London",Greater London,N16 0AP,Hackney London Boro,,London Fire Brigade,2023/3/1,-0.076858885,51.56244602
11093,11093,19951738,Stratford Fire Station,6330414,Public Infrastructure,Central and Local Government,Fire Brigade Stations,539578,184675,1,46099182,osgb1000006732912,6,22208081,1,35.7,Stratford Fire Station 117,Romford Road,"Stratford, London",Greater London,E15 4LY,Newham London Boro,,London Fire Brigade,2023/3/1,0.011435249,51.54371936
11094,11094,19951739,Surbiton Fire Station,6330414,Public Infrastructure,Central and Local Government,Fire Brigade Stations,518514,167286,1,128006820,osgb1000041422399,4,21800386,1,31.1,Fire Station 31-33,Ewell Road,Surbiton,Greater London,KT6 6AF,Kingston upon Thames London Boro,,London Fire Brigade,2023/3/1,-0.297993144,51.39224493
11095,11095,19951740,Sutton (Surrey) Fire Station,6330414,Public Infrastructure,Central and Local Government,Fire Brigade Stations,524623,164847,1,5870021065,osgb1000042091163,4,22605525,1,36.2,Sutton Fire Station 43,St Dunstans Hill,Cheam,Greater London,SM1 2JX,Sutton London Boro,,London Fire Brigade,2023/3/1,-0.211087473,51.36901729
11096,11096,19951741,Tooting Fire Station,6330414,Public Infrastructure,Central and Local Government,Fire Brigade Stations,527798,172583,1,1.00023E+11,osgb1000041638323,3,22906604,1,25.6,Tooting Fire Station 89-91,Trinity Road,London,Greater London,SW17 7SQ,Wandsworth London Boro,,London Fire Brigade,2023/3/1,-0.162717136,51.437837
11097,11097,19951742,Tottenham Fire Station,6330414,Public Infrastructure,Central and Local Government,Fire Brigade Stations,533675,189942,1,1.00023E+11,osgb1000006062150,6,21105075,1,24.7,Tottenham Fire Station 49,St Loys Road,"Tottenham, London",Greater London,N17 6UE,Haringey London Boro,,London Fire Brigade,2023/3/1,-0.071637348,51.59247814
11098,11098,19951743,Twickenham Fire Station,6330414,Public Infrastructure,Central and Local Government,Fire Brigade Stations,514957,171984,1,1.00023E+11,osgb1000002977893,3,22401854,1,21.5,Twickenham Fire Station 30,South Road,Twickenham,Greater London,TW2 5NT,Richmond upon Thames London Boro,,London Fire Brigade,2023/3/1,-0.347573401,51.43520178
11099,11099,19951744,Wallington Fire Station,6330414,Public Infrastructure,Central and Local Government,Fire Brigade Stations,529026,164216,1,5870093672,osgb1000005380139,4,22602109,1,20.3,Wallington Fire Station 19,Belmont Road,Wallington,Greater London,SM6 8TE,Sutton London Boro,,London Fire Brigade,2023/3/1,-0.14809934,51.36236446
11100,11100,19951745,Walthamstow Fire Station,6330414,Public Infrastructure,Central and Local Government,Fire Brigade Stations,536657,189715,1,1.00023E+11,osgb5000005103959657,1,22837350,1,19.3,Walthamstow Fire Station 343,Forest Road,Walthamstow,Greater London,E17 5JR,Waltham Forest London Boro,,London Fire Brigade,2023/3/1,-0.02870334,51.58972329
11101,11101,19951746,Wandsworth Fire Station,6330414,Public Infrastructure,Central and Local Government,Fire Brigade Stations,525056,174594,1,121007308,osgb1000041615678,4,22906045,1,22.7,Wandsworth Fire Station 45,West Hill,London,Greater London,SW18 1RB,Wandsworth London Boro,,London Fire Brigade,2023/3/1,-0.201436786,51.45652161
11102,11102,19951747,Wembley Fire Station,6330414,Public Infrastructure,Central and Local Government,Fire Brigade Stations,517682,185012,1,202089574,osgb1000003313763,7,20202039,1,26.7,Wembley Fire Station 591a,Harrow Road,Wembley,Greater London,HA0 2EG,Brent London Boro,,London Fire Brigade,2023/3/1,-0.30404769,51.55173433
11103,11103,19951748,West Hampstead Fire Station,6330414,Public Infrastructure,Central and Local Government,Fire Brigade Stations,525394,185189,1,5036508,osgb1000004206667,3,20499056,1,33.1,West Hampstead Fire Station 325,West End Lane,London,Greater London,NW6 1RR,Camden London Boro,,London Fire Brigade,2023/3/1,-0.19281048,51.55166614
11104,11104,19951749,West Norwood Fire Station,6330414,Public Infrastructure,Central and Local Government,Fire Brigade Stations,531827.4,172618.9,1,1.00023E+11,osgb1000042267252,7,21901036,1,31.9,445,Norwood Road,London,Greater London,SE27 9DN,Lambeth London Boro,,London Fire Brigade,2023/3/1,-0.104765313,51.4372371
11108,11108,19951751,Whitechapel Fire Station,6330414,Public Infrastructure,Central and Local Government,Fire Brigade Stations,534059,181356,1,6012685,osgb1000006180306,5,22700346,1,23.4,Whitechapel Fire Station 27,Commercial Road,London,Greater London,E1 1LD,Tower Hamlets London Boro,,London Fire Brigade,2023/3/1,-0.069365742,51.51523032
11109,11109,19951752,Willesden Fire Station,6330414,Public Infrastructure,Central and Local Government,Fire Brigade Stations,522379,184306,1,202057367,osgb1000042041153,6,20200346,1,27.3,Fire Station 59a,Pound Lane,London,Greater London,NW10 2HH,Brent London Boro,,London Fire Brigade,2023/3/1,-0.236580976,51.54439167
11110,11110,19951753,Wimbledon Fire Station,6330414,Public Infrastructure,Central and Local Government,Fire Brigade Stations,525438,170048,1,48082669,osgb1000041605195,5,22103622,1,28.6,Fire Station 87,Kingston Road,"Wimbledon, London",Greater London,SW19 1JN,Merton London Boro,,London Fire Brigade,2023/3/1,-0.197549908,51.41558074
11111,11111,19951754,Woodford Fire Station,6330414,Public Infrastructure,Central and Local Government,Fire Brigade Stations,540254,191998,1,1.00023E+11,osgb1000006863126,8,22305313,1,22.8,Woodford Fire Station 2,Snakes Lane West,Woodford Green,Greater London,IG8 0BS,Redbridge London Boro,,London Fire Brigade,2023/3/1,0.024097426,51.60935413
11112,11112,19951755,Woodside Fire Station,6330414,Public Infrastructure,Central and Local Government,Fire Brigade Stations,534929,166983,1,1.00023E+11,osgb1000006128916,2,20501153,1,23.9,Fire Station 2,Long Lane,Croydon,Greater London,CR0 7AL,Croydon London Boro,,London Fire Brigade,2023/3/1,-0.062312197,51.3858601
11113,11113,19951757,Heathrow Fire Station,6330414,Public Infrastructure,Central and Local Government,Fire Brigade Stations,507134.4,176818.8,1,10003002998,osgb1000002356621,3,21401419,1,631,Heathrow Fire Station Building 450,Northern Perimeter Road,"London Heathrow Airport, Heathrow",Greater London,TW6 2RR,Hillingdon London Boro,,London Fire Brigade,2023/3/1,-0.458604132,51.48019109
11114,11114,19951758,Dowgate Fire Station,6330414,Public Infrastructure,Central and Local Government,Fire Brigade Stations,532630,180737,1,2E+11,osgb1000005889782,4,8100545,1,33.9,Dowgate Fire Station 94-95,Upper Thames Street,London,Greater London,EC4R 3UE,City and County of the City of London,,London Fire Brigade,2023/3/1,-0.09018067,51.51000486
11115,11115,19951760,Lewisham Fire Station,6330414,Public Infrastructure,Central and Local Government,Fire Brigade Stations,538130.9,175010.2,1,1.00023E+11,osgb1000041916289,9,22004177,1,17.6,Lewisham Fire Station 249-259,Lewisham High Street,"Hither Green, London",Greater London,SE13 6NH,Lewisham London Boro,,London Fire Brigade,2023/3/1,-0.013201738,51.45722509
11116,11116,19951761,Leytonstone Fire Station,6330414,Public Infrastructure,Central and Local Government,Fire Brigade Stations,539329,186560,1,1.00023E+11,osgb5000005177108450,1,22844950,1,17.2,Leytonstone Fire Station 466,High Road Leytonstone,Leytonstone,Greater London,E11 3HN,Waltham Forest London Boro,,London Fire Brigade,2023/3/1,0.008592918,51.56071928
11117,11117,19951763,Richmond (London) Fire Station,6330414,Public Infrastructure,Central and Local Government,Fire Brigade Stations,519232.2,175671.9,1,1.00023E+11,osgb1000003497922,4,22404723,1,23.7,Richmond Fire Station 323,Lower Richmond Road,Richmond,Greater London,TW9 4PN,Richmond upon Thames London Boro,,London Fire Brigade,2023/3/1,-0.284855609,51.46746411
11118,11118,19951764,Romford Fire Station,6330414,Public Infrastructure,Central and Local Government,Fire Brigade Stations,551179.4,190571.3,1,1.00023E+11,osgb1000000295622,3,21301497,1,22.6,Romford Fire Station 198,Pettits Lane North,Romford,Greater London,RM1 4NU,Havering London Boro,,London Fire Brigade,2023/3/1,0.181143577,51.59371193
11119,11119,19951765,Wennington Fire Station,6330414,Public Infrastructure,Central and Local Government,Fire Brigade Stations,554196.2,180917.3,1,1.00024E+11,osgb1000000437404,8,21320396,1,39.7,Wennington Fire Station,Wennington Road,"Wennington, Rainham",Greater London,RM13 9EE,Havering London Boro,,London Fire Brigade,2023/3/1,0.22043424,51.50615592
11125,11125,85655393,Harold Hill,6330414,Public Infrastructure,Central and Local Government,Fire Brigade Stations,554100,191182,1,,osgb1000002504197629,1,21301607,3,14.8,"Units 7-9, Falcon Business Centre",Ashton Road,Romford,Greater London,RM3 8UR,Havering London Boro,,London Fire Brigade,2023/3/1,0.223539568,51.59840771
3229,3229,16436495,Central Middlesex Hospital,5280371,Education and Health,Health Practitioners and Establishments,Hospitals,520178,182750,1,202136752,osgb1000001787306395,5,20200845,3,112.2,,Acton Lane,London,Greater London,NW10 7NS,Brent London Boro,2089655733,Wilmington Healthcare Ltd,2023/3/1,-0.268837018,51.53087938
3291,3291,16439215,Beckenham Beacon,5280371,Education and Health,Health Practitioners and Establishments,Hospitals,536898,169191,1,1.00023E+11,osgb1000006387081,6,20300876,1,51.3,379,Croydon Road,Beckenham,Greater London,BR3 3QL,Bromley London Boro,1689863000,Wilmington Healthcare Ltd,2023/3/1,-0.033182513,51.40523061
3297,3297,16440046,Royal National Orthopaedic Hospital,5280371,Education and Health,Health Practitioners and Establishments,Hospitals,517032.6,193990.7,1,10000001177,osgb1000003333872,5,21202605,1,360,,Brockley Hill,Stanmore,Greater London,HA7 4LP,Harrow London Boro,2089542300,Wilmington Healthcare Ltd,2023/3/1,-0.310417532,51.63256643
3299,3299,16439723,Purley War Memorial Hospital,5280371,Education and Health,Health Practitioners and Establishments,Hospitals,531431,161871,1,1.00023E+11,osgb1000042247261,4,20500187,1,64,856,Brighton Road,Purley,Greater London,CR8 2YL,Croydon London Boro,2032285400,Wilmington Healthcare Ltd,2023/3/1,-0.114439836,51.34073968
3300,3300,16439898,Memorial Hospital,5280371,Education and Health,Health Practitioners and Establishments,Hospitals,543448,176419,1,1.00023E+11,osgb1000001770585663,13,20801346,2,112.6,Memorial Hospital,Shooters Hill,Plumstead,Greater London,SE18 3RZ,Greenwich London Boro,2088368500,Wilmington Healthcare Ltd,2023/3/1,0.063848631,51.46856333
3302,3302,16439983,Erith & District Hospital,5280371,Education and Health,Health Practitioners and Establishments,Hospitals,550561,177576,1,1.00023E+11,osgb1000000205500,9,20101100,1,50.3,193,Park Crescent,Erith,Greater London,DA8 3EE,Bexley London Boro,2083083131,Wilmington Healthcare Ltd,2023/3/1,0.166670508,51.47711292
3303,3303,16440161,Western Eye Hospital,5280371,Education and Health,Health Practitioners and Establishments,Hospitals,527550,181813,1,,osgb1000042195995,4,8401317,3,15.4,153-173,Marylebone Road,London,Greater London,NW1 5QH,City of Westminster London Boro,2033126666,Wilmington Healthcare Ltd,2023/3/1,-0.162953634,51.52084331
4750,4750,19243650,Goldie Leigh Hospital Site,5280371,Education and Health,Health Practitioners and Establishments,Hospitals,547073,177656,1,1.00023E+11,osgb1000000034858,7,20800933,2,100.7,Goldie Leigh Hospital,Lodge Hill,London,Greater London,SE2,Greenwich London Boro,2083197100,Wilmington Healthcare Ltd,2023/3/1,0.116515134,51.4787486
4819,4819,20044903,Ealing Day Treatment Centre,5280371,Education and Health,Health Practitioners and Establishments,Hospitals,513130,181125,1,12126662,osgb1000002907782,6,20600259,1,49.2,,Britten Drive,Southall,Greater London,UB1 2SH,Ealing London Boro,2085711143,Wilmington Healthcare Ltd,2023/3/1,-0.370921182,51.51772821
4957,4957,20365260,Chelsea & Westminster Hospital,5280371,Education and Health,Health Practitioners and Establishments,Hospitals,526369,177712,1,217033201,osgb1000042169624,7,21700218,1,114.9,369,Fulham Road,London,Greater London,SW10 9TR,Kensington and Chelsea London Boro,2033158000,Wilmington Healthcare Ltd,2023/3/1,-0.181435161,51.48425236
4962,4962,20365492,University College Hospital at Westmoreland Street,5280371,Education and Health,Health Practitioners and Establishments,Hospitals,528470,181696,1,1.00023E+11,osgb1000005294085,5,8401609,1,12.1,16-18,Westmoreland Street,London,Greater London,W1G 8PH,City of Westminster London Boro,2034567898,Wilmington Healthcare Ltd,2023/3/1,-0.149743253,51.51958355
4965,4965,20365003,St Pancras Hospital,5280371,Education and Health,Health Practitioners and Establishments,Hospitals,529688,183612,1,5139737,osgb1000005431389,3,20400656,1,79.9,St Pancras Hospital 4,St Pancras Way,London,Greater London,NW1 0PE,Camden London Boro,2033173500,Wilmington Healthcare Ltd,2023/3/1,-0.131492955,51.53652433
4968,4968,20365200,Sutton Hospital,5280371,Education and Health,Health Practitioners and Establishments,Hospitals,526080.7,162260.7,1,5870027664,osgb1000004271212,9,22602231,1,245.3,Sutton Hospital,Cotswold Road,Sutton,Greater London,SM2 5NF,Sutton London Boro,2082962000,Wilmington Healthcare Ltd,2023/3/1,-0.191073595,51.34545197
4969,4969,20365207,Kingston Hospital,5280371,Education and Health,Health Practitioners and Establishments,Hospitals,519525.6,169822.2,1,1.00023E+11,osgb1000041455518,7,21800429,1,131.5,Kingston Hospital,Galsworthy Road,Kingston-upon-Thames,Greater London,KT2 7QB,Kingston upon Thames London Boro,2085467711,Wilmington Healthcare Ltd,2023/3/1,-0.282607256,51.41482778
4976,4976,20365624,The Royal London Hospital,5280371,Education and Health,Health Practitioners and Establishments,Hospitals,534687,181756,1,,osgb5000005126394481,3,22701339,3,35.6,,,London,Greater London,E1,Tower Hamlets London Boro,2073777000,Wilmington Healthcare Ltd,2023/3/1,-0.06016786,51.51867554
4985,4985,20912378,King's College Hospital,5280371,Education and Health,Health Practitioners and Establishments,Hospitals,532494,176068,1,1.00023E+11,osgb1000001767379058,91,21900453,1,150.9,,Denmark Hill,London,Greater London,SE5 9RS,Lambeth London Boro,2032999000,Wilmington Healthcare Ltd,2023/3/1,-0.09389012,51.46807795
4986,4986,20912550,Whittington Hospital,5280371,Education and Health,Health Practitioners and Establishments,Hospitals,529078,186930,1,10090262687,osgb1000005305961,15,21600568,1,82.5,,Magdala Avenue,"Islington, London",Greater London,N19 5NF,Islington London Boro,2072723070,Wilmington Healthcare Ltd,2023/3/1,-0.139066492,51.56648222
4988,4988,20912385,Hammersmith Hospital,5280371,Education and Health,Health Practitioners and Establishments,Hospitals,522476,181342,1,,osgb1000042034352,9,21000285,2,184.8,Hammersmith Hospital,Du Cane Road,London,Greater London,W12 0HS,Hammersmith and Fulham London Boro,2033131000,Wilmington Healthcare Ltd,2023/3/1,-0.236213418,51.51773212
4989,4989,20912558,Royal London Hospital for Integrated Medicine,5280371,Education and Health,Health Practitioners and Establishments,Hospitals,530432,181986,1,5123747,osgb1000005580003,16,20499044,1,25.9,,Great Ormond Street,London,Greater London,WC1N 3HR,Camden London Boro,8451555000,Wilmington Healthcare Ltd,2023/3/1,-0.121373674,51.52174055
4990,4990,20912560,The National Hospital for Neurology & Neurosurgery,5280371,Education and Health,Health Practitioners and Establishments,Hospitals,530389,182033,1,5133289,osgb1000005579996,13,20499108,1,26.8,,Queen Square,London,Greater London,WC1N 3BG,Camden London Boro,8451555000,Wilmington Healthcare Ltd,2023/3/1,-0.121975725,51.52217285
4992,4992,20912396,Guy's Hospital,5280371,Education and Health,Health Practitioners and Establishments,Hospitals,532893,180024,1,2.00003E+11,osgb5000005130862748,5,22503273,3,53,,Great Maze Pond,London,Greater London,SE1 9RT,Southwark London Boro,2071887188,Wilmington Healthcare Ltd,2023/3/1,-0.086661638,51.50353567
4995,4995,20912422,Moorfields Eye Hospital,5280371,Education and Health,Health Practitioners and Establishments,Hospitals,532602,182655,1,10090550189,osgb1000005893373,8,21604520,1,55.2,162-184,City Road,"Islington, London",Greater London,EC1V 2PD,Islington London Boro,2072533411,Wilmington Healthcare Ltd,2023/3/1,-0.089862535,51.5272477
4997,4997,20912266,Croydon University Hospital,5280371,Education and Health,Health Practitioners and Establishments,Hospitals,531688,167262,1,2.00001E+11,osgb1000042258305,13,20503034,1,201.5,Croydon University Hospital 530,London Road,Thornton Heath,Greater London,CR7 7YE,Croydon London Boro,2084013000,Wilmington Healthcare Ltd,2023/3/1,-0.108757827,51.3891284
4998,4998,20912267,Springfield University Hospital,5280371,Education and Health,Health Practitioners and Establishments,Hospitals,527130,172513,1,1.00023E+11,osgb1000001795031692,44,22902024,1,369.6,Springfield Hospital 61,Glenburnie Road,London,Greater London,SW17 7DJ,Wandsworth London Boro,2035135000,Wilmington Healthcare Ltd,2023/3/1,-0.172347849,51.43735797
4999,4999,20912438,Newham University Hospital,5280371,Education and Health,Health Practitioners and Establishments,Hospitals,541259,182391,1,46255350,osgb1000041864059,12,22200647,1,110.7,,Glen Road,"Plaistow, London",Greater London,E13 8SL,Newham London Boro,2074764000,Wilmington Healthcare Ltd,2023/3/1,0.034744335,51.52277737
5000,5000,20912615,Royal Brompton Hospital,5280371,Education and Health,Health Practitioners and Establishments,Hospitals,527090.4,178341.1,1,217085226,osgb1000042195426,6,21700534,1,36.8,Royal Brompton Hospital,Sydney Street,London,Greater London,SW3 6PY,Kensington and Chelsea London Boro,2073528121,Wilmington Healthcare Ltd,2023/3/1,-0.170824993,51.48974463
5001,5001,20912616,Harefield Hospital,5280371,Education and Health,Health Practitioners and Establishments,Hospitals,505166,190856,1,1.00023E+11,osgb1000041969311,11,21400974,1,156.9,,Hill End Road,Harefield,Greater London,UB9 6JH,Hillingdon London Boro,1895823737,Wilmington Healthcare Ltd,2023/3/1,-0.482747362,51.60673167
5003,5003,20912447,St Marks Hospital,5280371,Education and Health,Health Practitioners and Establishments,Hospitals,516509,187673,1,,osgb5000005290250512,1,20203055,3,162.4,,Watford Road,Harrow,Greater London,HA1 3UJ,Brent London Boro,2082354000,Wilmington Healthcare Ltd,2023/3/1,-0.320077605,51.57589354
5006,5006,20912283,Queen Mary's Hospital for Children,5280371,Education and Health,Health Practitioners and Establishments,Hospitals,526420,166088,1,,osgb1000004286811,3,22605653,2,142.6,St. Helier Hospital,Wrythe Lane,Carshalton,Greater London,SM5 1AA,Sutton London Boro,2082962000,Wilmington Healthcare Ltd,2023/3/1,-0.184845156,51.37977361
5008,5008,20912291,North Middlesex University Hospital,5280371,Education and Health,Health Practitioners and Establishments,Hospitals,533470,192231,1,207169107,osgb1000006075735,18,20705054,1,136.1,,Sterling Way,Edmonton,Greater London,N18 1QX,Enfield London Boro,2088872000,Wilmington Healthcare Ltd,2023/3/1,-0.073724722,51.6130962
5012,5012,20912480,Royal Marsden Hospital,5280371,Education and Health,Health Practitioners and Establishments,Hospitals,526968.8,178428.8,1,217032983,osgb1000004322712,4,21700218,1,61.2,203,Fulham Road,London,Greater London,SW3 6JJ,Kensington and Chelsea London Boro,2073528171,Wilmington Healthcare Ltd,2023/3/1,-0.172544009,51.49056009
5013,5013,20912481,Royal Marsden Hospital (Surrey Branch),5280371,Education and Health,Health Practitioners and Establishments,Hospitals,526085,162041,1,5870119069,osgb1000004271209,17,22605395,1,141.3,,Downs Road,Sutton,Greater London,SM2 5PT,Sutton London Boro,2086426011,Wilmington Healthcare Ltd,2023/3/1,-0.191089633,51.3434765
5015,5015,20912351,Ealing Hospital,5280371,Education and Health,Health Practitioners and Establishments,Hospitals,514864,179969.3,1,12001075,osgb1000002999942,14,20604995,3,81.1,Ealing Hospital,Uxbridge Road,Southall,Greater London,UB1 3HW,Ealing London Boro,2089675000,Wilmington Healthcare Ltd,2023/3/1,-0.346317427,51.50699141
5018,5018,20912532,Great Ormond Street Hospital,5280371,Education and Health,Health Practitioners and Establishments,Hospitals,530533.3,182040.6,1,5090726,osgb1000001802118636,22,20499044,1,23.5,,Great Ormond Street,London,Greater London,WC1N 3JH,Camden London Boro,2074059200,Wilmington Healthcare Ltd,2023/3/1,-0.119894185,51.52220785
5019,5019,20912537,Mile End Hospital,5280371,Education and Health,Health Practitioners and Establishments,Hospitals,535925,182509,1,6033653,osgb1000041688203,18,22700755,3,82.5,275,Bancroft Road,London,Greater London,E1 4DG,Tower Hamlets London Boro,2073777000,Wilmington Healthcare Ltd,2023/3/1,-0.042045402,51.52514583
5020,5020,20912540,Bethlem Royal Hospital,5280371,Education and Health,Health Practitioners and Establishments,Hospitals,537210,166494,1,1.00023E+11,osgb1000041745471,9,20301962,1,157.2,Bethlem Royal Hospital,Monks Orchard Road,Beckenham,Greater London,BR3 3BX,Bromley London Boro,2032286000,Wilmington Healthcare Ltd,2023/3/1,-0.029740663,51.38091955
5044,5044,20912774,St Ann's Hospital,5280371,Education and Health,Health Practitioners and Establishments,Hospitals,532294,188587,1,1.00023E+11,osgb1000005912308,5,21103905,1,97.6,St Anns General Hospital,St Anns Road,"Tottenham, London",Greater London,N15 3TH,Haringey London Boro,2084426000,Wilmington Healthcare Ltd,2023/3/1,-0.092071255,51.58062766
5071,5071,20913601,Northwick Park Hospital,5280371,Education and Health,Health Practitioners and Establishments,Hospitals,516376,187616,1,202026960,osgb1000001777821636,14,20201453,1,214.7,,Watford Road,Harrow,Greater London,HA1 3UJ,Brent London Boro,2088643232,Wilmington Healthcare Ltd,2023/3/1,-0.322014893,51.57540866
5072,5072,20913603,Royal Free Hospital,5280371,Education and Health,Health Practitioners and Establishments,Hospitals,527297,185410,1,5087826,osgb1000005165917,9,20400297,1,91.1,Royal Free Hospital,Pond Street,London,Greater London,NW3 2QG,Camden London Boro,2077940500,Wilmington Healthcare Ltd,2023/3/1,-0.165298226,51.55322653
5087,5087,20913653,Queen Charlottes & Chelsea Hospital,5280371,Education and Health,Health Practitioners and Establishments,Hospitals,522398,181185,1,34141001,osgb1000042034612,5,21000285,2,45.2,Hammersmith Hospital,Du Cane Road,London,Greater London,W12 0HS,Hammersmith and Fulham London Boro,2033131111,Wilmington Healthcare Ltd,2023/3/1,-0.237391535,51.51633798
5093,5093,20913492,Camden Mews Day Hospital,5280371,Education and Health,Health Practitioners and Establishments,Hospitals,529420,184422,1,,osgb1000005436855,6,20400538,2,11.3,1月5日,Camden Mews,London,Greater London,NW1 9DB,Camden London Boro,2033174740,Wilmington Healthcare Ltd,2023/3/1,-0.135057223,51.54386513
5098,5098,20913534,Whipps Cross University Hospital,5280371,Education and Health,Health Practitioners and Establishments,Hospitals,538863,188563,1,1.00023E+11,osgb1000006636506,71,22886800,1,144.4,Whipps Cross University Hospital,Whipps Cross Road,Leytonstone,Greater London,E11 1NR,Waltham Forest London Boro,2085395522,Wilmington Healthcare Ltd,2023/3/1,0.00266552,51.57883278
5100,5100,20913544,St Thomas' Hospital,5280371,Education and Health,Health Practitioners and Establishments,Hospitals,530703,179517,1,1.00023E+11,osgb1000005572715,13,21901482,1,136.1,St Thomas' Hospital 249,Westminster Bridge Road,London,Greater London,SE1 7EH,Lambeth London Boro,2071887188,Wilmington Healthcare Ltd,2023/3/1,-0.118384658,51.49948956
5101,5101,20913548,Hillingdon Hospital,5280371,Education and Health,Health Practitioners and Establishments,Hospitals,506870,181856,1,,osgb1000002316270,3,21401529,2,104.9,,Pield Heath Road,Uxbridge,Greater London,UB8 3NN,Hillingdon London Boro,1895238282,Wilmington Healthcare Ltd,2023/3/1,-0.460885403,51.52551681
5102,5102,20913550,The Princess Royal University Hospital,5280371,Education and Health,Health Practitioners and Establishments,Hospitals,543443,165032,1,1.0002E+11,osgb1000001773944906,17,20300069,1,296.4,,Farnborough Common,Orpington,Greater London,BR6 8ND,Bromley London Boro,1689863000,Wilmington Healthcare Ltd,2023/3/1,0.059173524,51.36624433
5103,5103,20913559,St Helier Hospital,5280371,Education and Health,Health Practitioners and Establishments,Hospitals,526504,166150,1,5870054822,osgb1000004286748,28,22605653,1,46.9,St Helier Hospital,Wrythe Lane,Carshalton,Greater London,SM5 1AA,Sutton London Boro,2082962000,Wilmington Healthcare Ltd,2023/3/1,-0.183616751,51.38031212
5104,5104,20913560,St George's Hospital,5280371,Education and Health,Health Practitioners and Establishments,Hospitals,526925,171324,1,1.00023E+11,osgb1000041620171,11,22900509,1,218.2,,Blackshaw Road,London,Greater London,SW17 0QT,Wandsworth London Boro,2086721255,Wilmington Healthcare Ltd,2023/3/1,-0.175721298,51.42671799
5106,5106,20913569,St Mary's Hospital,5280371,Education and Health,Health Practitioners and Establishments,Hospitals,526826,181364,1,2.00001E+11,osgb1000042175613,7,8400572,1,21.6,St Marys Hospital,Praed Street,London,Greater London,W2,City of Westminster London Boro,2033126666,Wilmington Healthcare Ltd,2023/3/1,-0.173544826,51.51697098
5117,5117,21470616,Mount Vernon Hospital,5280371,Education and Health,Health Practitioners and Establishments,Hospitals,507721,191879,1,,osgb1000041972238,2,21401630,2,203.5,,Rickmansworth Road,Northwood,Greater London,HA6 2RN,Hillingdon London Boro,1923826111,Wilmington Healthcare Ltd,2023/3/1,-0.44555274,51.61544415
5171,5171,22925602,St Charles Hospital,5280371,Education and Health,Health Practitioners and Establishments,Hospitals,523783,181889,1,217118402,osgb1000042072360,10,21700870,1,71.8,,Exmoor Street,London,Greater London,W10 6DZ,Kensington and Chelsea London Boro,2089692488,Wilmington Healthcare Ltd,2023/3/1,-0.217193904,51.52236361
5236,5236,32499583,Evelina Children's Hospital,5280371,Education and Health,Health Practitioners and Establishments,Hospitals,530691,179384,1,,osgb1000001769596311,2,21900829,3,49.3,249,Westminster Bridge Road,London,Greater London,SE1 7EH,Lambeth London Boro,2071887188,Wilmington Healthcare Ltd,2023/3/1,-0.118606681,51.49829708
5314,5314,37026669,Queen's Hospital,5280371,Education and Health,Health Practitioners and Establishments,Hospitals,551117.7,187780.5,1,10013186555,osgb1000002504083189,3,21301559,1,252.2,,Rom Valley Way,Romford,Greater London,RM7 0AG,Havering London Boro,1708435000,Wilmington Healthcare Ltd,2023/3/1,0.179053639,51.56865311
5335,5335,41253469,Richard Desmond Children's Eye Centre,5280371,Education and Health,Health Practitioners and Establishments,Hospitals,532561,182632,1,10012790234,osgb1000001802736538,5,21605651,2,19.7,3,Peerless Street,London,Greater London,EC1V 9EZ,Islington London Boro,2072533411,Wilmington Healthcare Ltd,2023/3/1,-0.090461875,51.52705063
5336,5336,41253472,East Ham Care Centre,5280371,Education and Health,Health Practitioners and Establishments,Hospitals,541817,184252,1,46253683,osgb1000041872753,6,22207886,1,68.8,"306, Shrewsbury Road",Forest Gate,London,Greater London,E7 8QP,Newham London Boro,2084752001,Wilmington Healthcare Ltd,2023/3/1,0.043530359,51.53936011
5375,5375,49126939,Barnet Hospital,5280371,Education and Health,Health Practitioners and Establishments,Hospitals,523647.3,196169.2,1,200134904,osgb1000042084117,14,20045000,1,107.3,,Wellhouse Lane,Barnet,Greater London,EN5 3DJ,Barnet London Boro,2082164600,Wilmington Healthcare Ltd,2023/3/1,-0.214122767,51.65073048
5448,5448,54286859,Finchley Memorial Hospital,5280371,Education and Health,Health Practitioners and Establishments,Hospitals,526387,191223,1,200050404,osgb5000005104997052,2,20018780,3,75.6,,Granville Road,London,Greater London,N12 0JE,Barnet London Boro,2083497500,Wilmington Healthcare Ltd,2023/3/1,-0.1763265,51.60567169
5452,5452,54286666,Elizabeth Garrett Anderson Wing (University College Hospital),5280371,Education and Health,Health Practitioners and Establishments,Hospitals,529448,182218,1,5090741,osgb1000005431016,12,20400955,3,19.8,235,Euston Road,London,Greater London,NW1 2BU,Camden London Boro,2034567890,Wilmington Healthcare Ltd,2023/3/1,-0.135463535,51.52405165
5696,5696,78340051,Clayponds Hospital,5280371,Education and Health,Health Practitioners and Establishments,Hospitals,518188,178721,1,12126605,osgb1000003406957,4,20602244,1,79.7,,Sterling Place,Ealing,Greater London,W5 4RN,Ealing London Boro,2085604011,Wilmington Healthcare Ltd,2023/3/1,-0.298862344,51.4950876
5697,5697,78340066,Orpington Hospital,5280371,Education and Health,Health Practitioners and Establishments,Hospitals,545961,164687,1,10003628027,osgb1000007328566,9,20303984,3,67.4,,Sevenoaks Road,Orpington,Greater London,BR6 9JU,Bromley London Boro,1689865911,Wilmington Healthcare Ltd,2023/3/1,0.095176498,51.36250344
5713,5713,78340067,Edgware Community Hospital,5280371,Education and Health,Health Practitioners and Establishments,Hospitals,519772,191079,1,,osgb5000005140898960,1,20006200,2,73.9,Burnt Oak Broadway,,Edgware,Greater London,HA8 0AD,Barnet London Boro,2089522381,Wilmington Healthcare Ltd,2023/3/1,-0.271850729,51.60582149
6878,6878,103916527,Charing Cross Hospital,5280371,Education and Health,Health Practitioners and Establishments,Hospitals,523690,177957,1,34118984,osgb1000042065171,14,21000356,1,82.7,,Fulham Palace Road,London,Greater London,W6 8RF,Hammersmith and Fulham London Boro,2033111234,Wilmington Healthcare Ltd,2023/3/1,-0.219912061,51.48704587
6989,6989,103917367,Grays Court Community Hospital,5280371,Education and Health,Health Practitioners and Establishments,Hospitals,549751,184456,1,10094448809,osgb1000001811257042,5,19900502,2,20.2,John Parker Close,,Dagenham,Greater London,RM10 9SR,Barking and Dagenham London Boro,2036442763,Wilmington Healthcare Ltd,2023/3/1,0.157935461,51.53914594
7176,7176,103925060,Edgware Community Hospital,5280371,Education and Health,Health Practitioners and Establishments,Hospitals,519763.3,191076.2,1,200219631,osgb1000001780651862,3,20006200,1,69.7,Edgware Community Hospital,Burnt Oak Broadway,Edgware,Greater London,HA8 0AD,Barnet London Boro,2089522381,Wilmington Healthcare Ltd,2023/3/1,-0.271977252,51.60579817
7186,7186,103925303,King George Hospital,5280371,Education and Health,Health Practitioners and Establishments,Hospitals,546441.5,188967,1,1.00022E+11,osgb5000005128001379,3,22301832,1,230.4,King George Hospital 167,Barley Lane,Ilford,Greater London,IG3 8YB,Redbridge London Boro,3304004333,Wilmington Healthcare Ltd,2023/3/1,0.112125908,51.58054581
7363,7363,103926864,West Middlesex University Hospital,5280371,Education and Health,Health Practitioners and Establishments,Hospitals,516548,176294,1,1.00023E+11,osgb1000003179807,9,21599901,3,29.4,,Twickenham Road,Isleworth,Greater London,TW7 6AF,Hounslow London Boro,2085602121,Wilmington Healthcare Ltd,2023/3/1,-0.323276239,51.47361399
7577,7577,103975425,Fulham Wing (Royal Brompton Hospital),5280371,Education and Health,Health Practitioners and Establishments,Hospitals,526873,178394,1,217032984,osgb1000004323266,6,21700218,1,16.2,,Fulham Road,London,Greater London,SW3 6HP,Kensington and Chelsea London Boro,2073528121,Wilmington Healthcare Ltd,2023/3/1,-0.173935652,51.49026882
7596,7596,104584927,Queen Mary's Hospital,5280371,Education and Health,Health Practitioners and Establishments,Hospitals,522261,174418,1,121052762,osgb1000001796512868,5,22904379,1,92.9,Queen Marys Hospital,Roehampton Lane,London,Greater London,SW15 5PN,Wandsworth London Boro,2084876000,Wilmington Healthcare Ltd,2023/3/1,-0.24170598,51.45554946
7598,7598,104584930,Teddington Memorial Hospital,5280371,Education and Health,Health Practitioners and Establishments,Hospitals,515439,170953,1,1.00023E+11,osgb1000003067230,10,22403537,1,73.6,,Hampton Road,Teddington,Greater London,TW11 0JL,Richmond upon Thames London Boro,2087144000,Wilmington Healthcare Ltd,2023/3/1,-0.340977995,51.42583748
7604,7604,108408913,Wilson Hospital,5280371,Education and Health,Health Practitioners and Establishments,Hospitals,527876,168073,1,48018788,osgb1000005110060,5,22101689,1,75.6,,Cranmer Road,Mitcham,Greater London,CR4 4TP,Merton London Boro,2086483021,Wilmington Healthcare Ltd,2023/3/1,-0.163220943,51.39728709
7619,7619,104584787,St Michael's Primary Care Centre,5280371,Education and Health,Health Practitioners and Establishments,Hospitals,532637,197642,1,,osgb1000005941487,5,20702746,3,55.7,Gater Drive,,Enfield,Greater London,EN2 0JB,Enfield London Boro,2083752894,Wilmington Healthcare Ltd,2023/3/1,-0.083697742,51.66191797
7663,7663,110595408,St Bernard's Hospital Site,5280371,Education and Health,Health Practitioners and Establishments,Hospitals,514536,179931.3,1,12177291,osgb1000003000072,19,20602324,1,250.6,The Orchard Unit St Bernards Hospital,Uxbridge Road,Southall,Greater London,UB1 3EU,Ealing London Boro,2083548354,Wilmington Healthcare Ltd,2023/3/1,-0.351053825,51.50671638
7671,7671,110595778,Guy's Cancer Centre,5280371,Education and Health,Health Practitioners and Establishments,Hospitals,546497.2,170947.8,1,10094789132,osgb5000005192206786,1,20100583,1,204.8,Guy's Cancer Centre Queen Marys Hospital,Frognal Avenue,Sidcup,Greater London,DA14 6LT,Bexley London Boro,2083022678,Wilmington Healthcare Ltd,2023/3/1,0.105453072,51.41862102
7677,7677,109121575,Barking Community Hospital,5280371,Education and Health,Health Practitioners and Establishments,Hospitals,545648.9,184271.7,1,100100148,osgb1000007377857,5,19900611,1,177.5,Barking Hospital,Upney Lane,Barking,Greater London,IG11 9LX,Barking and Dagenham London Boro,2036442301,Wilmington Healthcare Ltd,2023/3/1,0.098752436,51.53856233
7694,7694,110595547,Chase Farm Hospital,5280371,Education and Health,Health Practitioners and Establishments,Hospitals,531219.4,198118.1,1,207183897,osgb5000005229213869,1,20703006,1,220.1,,The Ridgeway,Enfield,Greater London,EN2 8JL,Enfield London Boro,2083751185,Wilmington Healthcare Ltd,2023/3/1,-0.104003127,51.6665289
7714,7714,110595562,University Hospital Lewisham,5280371,Education and Health,Health Practitioners and Establishments,Hospitals,537874,174681,1,,osgb1000041787256,5,22004177,2,70.9,University Hospital Lewisham,Lewisham High Street,London,Greater London,SE13 6LH,Lewisham London Boro,2083333000,Wilmington Healthcare Ltd,2023/3/1,-0.017025192,51.45432935
7715,7715,110595563,Lambeth Hospital,5280371,Education and Health,Health Practitioners and Establishments,Hospitals,530534,175710,1,1.00023E+11,osgb1000042510520,12,21900834,1,163.9,Lambeth Hospital 108,Landor Road,London,Greater London,SW9 9NU,Lambeth London Boro,2032286157,Wilmington Healthcare Ltd,2023/3/1,-0.122223443,51.46531586
7731,7731,114604004,Homerton Hospital,5280371,Education and Health,Health Practitioners and Establishments,Hospitals,535570,185336,1,10008242319,osgb1000006316249,26,20900535,1,127,,Homerton Row,"Hackney, London",Greater London,E9 6SR,Hackney London Boro,2085105555,Wilmington Healthcare Ltd,2023/3/1,-0.046071817,51.55063507
7801,7801,145902212,West Valley Hospital,5280371,Education and Health,Health Practitioners and Establishments,Hospitals,532302,166252,1,10090382437,osgb5000005209703049,1,20501433,1,25.8,Interchange 81-85,Station Road,Croydon,Greater London,CR0 2RD,Croydon London Boro,2037802504,Wilmington Healthcare Ltd,2023/3/1,-0.100314736,51.37990917
7922,7922,131529514,The Wellington Hospital North Building,5280371,Education and Health,Health Practitioners and Establishments,Hospitals,526816,183144,1,10033547309,osgb1000004335074,4,8401154,1,18.9,27,Circus Road,London,Greater London,NW8 6PG,City of Westminster London Boro,2075865959,Wilmington Healthcare Ltd,2023/3/1,-0.173048366,51.53297017
8040,8040,143165913,Optegra Eye Hospital London,5280371,Education and Health,Health Practitioners and Establishments,Hospitals,528656,181515,1,,osgb1000005292934,4,8401503,2,12.3,25,Queen Anne Street,London,Greater London,W1G 9HT,City of Westminster London Boro,8082732271,Wilmington Healthcare Ltd,2023/3/1,-0.147129972,51.51791462
8235,8235,150608080,Schoen Clinic London,5280371,Education and Health,Health Practitioners and Establishments,Hospitals,528462,181362,1,1.00023E+11,osgb1000005295289,4,8400283,1,45.8,66,Wigmore Street,London,Greater London,W1U 2SB,City of Westminster London Boro,2039290801,Wilmington Healthcare Ltd,2023/3/1,-0.149980188,51.51658372
8274,8274,143166109,Private Care at Guy's,5280371,Education and Health,Health Practitioners and Establishments,Hospitals,532730,180143,1,,osgb1000005890510,7,22501421,3,14,,Great Maze Pond,London,Greater London,SE1 9RT,Southwark London Boro,2074073100,Wilmington Healthcare Ltd,2023/3/1,-0.088963989,51.50464335
8275,8275,143166110,Brook House,5280371,Education and Health,Health Practitioners and Establishments,Hospitals,542461,177462.9,1,10010199203,osgb1000007003113,66,20801413,1,114.7,,Stadium Road,"Woolwich, London",Greater London,SE18 4QH,Greenwich London Boro,2088366000,Wilmington Healthcare Ltd,2023/3/1,0.050068963,51.4781928
8371,8371,127482761,London Bridge Hospital,5280371,Education and Health,Health Practitioners and Establishments,Hospitals,532940,180336,1,10013525568,osgb1000005890203,5,22502518,1,48.3,27-33,Tooley Street,London,Greater London,SE1 2PR,Southwark London Boro,2074073100,Wilmington Healthcare Ltd,2023/3/1,-0.085867317,51.50632845
8373,8373,127482955,Shirley Oaks Hospital,5280371,Education and Health,Health Practitioners and Establishments,Hospitals,535356,166598,1,1.00023E+11,osgb1000041654005,4,20500537,1,39.5,,Poppy Lane,Croydon,Greater London,CR9 8AB,Croydon London Boro,2086552255,Wilmington Healthcare Ltd,2023/3/1,-0.056326035,51.38229857
8374,8374,127482960,The Kings Oak Hospital,5280371,Education and Health,Health Practitioners and Establishments,Hospitals,531118.5,198273.4,1,207178871,osgb1000005788578,4,20703006,1,262.7,Kings Oak Private Hospital,The Ridgeway,Enfield,Greater London,EN2 8SD,Enfield London Boro,2083709500,Wilmington Healthcare Ltd,2023/3/1,-0.10540308,51.66794803
8380,8380,127482688,London Medical,5280371,Education and Health,Health Practitioners and Establishments,Hospitals,528356,181905,1,1.00023E+11,osgb1000005293891,2,8401405,1,34.6,49,Marylebone High Street,London,Greater London,W1U 5HJ,City of Westminster London Boro,2074675470,Wilmington Healthcare Ltd,2023/3/1,-0.151309329,51.52148771
8381,8381,127482625,Harley Street Diagnostics Centre,5280371,Education and Health,Health Practitioners and Establishments,Hospitals,528703,181452,1,1.00023E+11,osgb1000005294246,3,8400408,1,19.6,17,Harley Street,London,Greater London,W1G 9QH,City of Westminster London Boro,2074676190,Wilmington Healthcare Ltd,2023/3/1,-0.146475958,51.51733775
8383,8383,127482867,BUPA Cromwell Hospital,5280371,Education and Health,Health Practitioners and Establishments,Hospitals,525650.2,178901.7,1,217022128,osgb1000004180749,5,21700138,1,36,164-178,Cromwell Road,London,Greater London,SW5 0TU,Kensington and Chelsea London Boro,2074602000,Wilmington Healthcare Ltd,2023/3/1,-0.191358591,51.49510437
8384,8384,127482968,The Wellington Hospital,5280371,Education and Health,Health Practitioners and Establishments,Hospitals,526931,182989,1,1.00023E+11,osgb1000004335076,14,8400698,1,38.9,8a,Wellington Place,London,Greater London,NW8 9LE,City of Westminster London Boro,2075865959,Wilmington Healthcare Ltd,2023/3/1,-0.171447126,51.53155137
8389,8389,127482771,Priory Hospital Roehampton,5280371,Education and Health,Health Practitioners and Establishments,Hospitals,521495.1,175186.2,1,1.00023E+11,osgb5000005143748916,3,22903996,1,161.7,,Priory Lane,London,Greater London,SW15 5JJ,Wandsworth London Boro,2088768261,Wilmington Healthcare Ltd,2023/3/1,-0.252460364,51.46261837
8391,8391,127482869,London Welbeck Hospital,5280371,Education and Health,Health Practitioners and Establishments,Hospitals,528495,181547,1,10033599258,osgb1000005293716,6,8401048,1,12.1,27,Welbeck Street,London,Greater London,W1G 8EN,City of Westminster London Boro,2072242242,Wilmington Healthcare Ltd,2023/3/1,-0.149437432,51.51823881
8392,8392,127482870,London Fertility Centre,5280371,Education and Health,Health Practitioners and Establishments,Hospitals,528622,181930,1,1.00023E+11,osgb1000005292482,3,8400408,1,45.7,112a,Harley Street,London,Greater London,W1G 7JH,City of Westminster London Boro,2072240707,Wilmington Healthcare Ltd,2023/3/1,-0.147468314,51.52165193
8393,8393,127482979,CARE Fertility London,5280371,Education and Health,Health Practitioners and Establishments,Hospitals,527357,182557,1,1.00024E+11,osgb1000005157681,4,8400588,1,41.4,Park Lorne 111,Park Road,London,Greater London,NW8 7JL,City of Westminster London Boro,2076166767,Wilmington Healthcare Ltd,2023/3/1,-0.16546506,51.52757315
8400,8400,127482640,The London Clinic,5280371,Education and Health,Health Practitioners and Establishments,Hospitals,528516,182048,1,1.00023E+11,osgb1000005295986,6,8400408,1,20.4,145,Harley Street,London,Greater London,W1G 6BG,City of Westminster London Boro,2079354444,Wilmington Healthcare Ltd,2023/3/1,-0.148952292,51.52273649
8401,8401,127482780,Priory Hospital Hayes Grove,5280371,Education and Health,Health Practitioners and Establishments,Hospitals,540319.6,165706.2,1,1.00023E+11,osgb1000006786423,5,20303570,1,53,Hayes Grove Priory Hospital,Prestons Road,"Hayes, Bromley",Greater London,BR2 7AS,Bromley London Boro,2084627722,Wilmington Healthcare Ltd,2023/3/1,0.014602566,51.37308184
8402,8402,127482981,London Womens Clinic,5280371,Education and Health,Health Practitioners and Establishments,Hospitals,532736,180198,1,2.00003E+11,osgb1000005890279,3,22502357,1,12.6,1月7日,St Thomas Street,London,Greater London,SE1 9RY,Southwark London Boro,2038193282,Wilmington Healthcare Ltd,2023/3/1,-0.0888569,51.5051362
8404,8404,127483199,Spire London East Hospital,5280371,Education and Health,Health Practitioners and Establishments,Hospitals,541638.2,189566.1,1,10034910597,osgb1000006946939,5,22303197,1,121.7,Spire London East Hospital,Roding Lane South,Ilford,Greater London,IG4 5PZ,Redbridge London Boro,2085511100,Wilmington Healthcare Ltd,2023/3/1,0.043092795,51.58715585
8406,8406,127482641,The London Clinic,5280371,Education and Health,Health Practitioners and Establishments,Hospitals,528470,181939,1,10033533303,osgb1000005293827,8,8400592,1,12.4,3月5日,Devonshire Place,London,Greater London,W1G,City of Westminster London Boro,2079354444,Wilmington Healthcare Ltd,2023/3/1,-0.149654696,51.52176737
8407,8407,127482647,Weymouth Street Hospital,5280371,Education and Health,Health Practitioners and Establishments,Hospitals,528404,181765,1,1.00023E+11,osgb1000005293770,3,8401612,1,17.8,42-46,Weymouth Street,London,Greater London,W1G 6NP,City of Westminster London Boro,2079351200,Wilmington Healthcare Ltd,2023/3/1,-0.150668853,51.52021864
8409,8409,127482720,Queens Square Imaging Centre,5280371,Education and Health,Health Practitioners and Establishments,Hospitals,530322,181970,1,5110249,osgb1000005575782,4,20499108,1,21.4,8月11日,Queen Square,London,Greater London,WC1N 3AR,Camden London Boro,2078332513,Wilmington Healthcare Ltd,2023/3/1,-0.122964191,51.52162213
8410,8410,127482785,Priory Hospital North London,5280371,Education and Health,Health Practitioners and Establishments,Hospitals,530330,194242,1,207180905,osgb1000001804617350,4,20705011,1,279,The Priory Hospital North London,The Bourne,Southgate,Greater London,N14 6RA,Enfield London Boro,2088828191,Wilmington Healthcare Ltd,2023/3/1,-0.118299097,51.63190357
8411,8411,127482786,Priory North London Clinic,5280371,Education and Health,Health Practitioners and Establishments,Hospitals,534166.1,193684.4,1,207179198,osgb1000006215897,5,20704052,1,51.9,15,Church Street,Edmonton,Greater London,N9 9DY,Enfield London Boro,2089561234,Wilmington Healthcare Ltd,2023/3/1,-0.063121229,51.62599138
8414,8414,127482887,The Cavell Hospital,5280371,Education and Health,Health Practitioners and Establishments,Hospitals,531303.9,197266.4,1,207145025,osgb1000005788147,6,20702571,1,35,North London Nuffield Hospital,Cavell Drive,Enfield,Greater London,EN2 7PR,Enfield London Boro,2083662122,Wilmington Healthcare Ltd,2023/3/1,-0.103101501,51.65885553
8415,8415,127482989,Wellington Diagnostics & Outpatients Centre,5280371,Education and Health,Health Practitioners and Establishments,Hospitals,524154.8,188367.1,1,200166365,osgb1000004067579,3,20018180,1,39.1,Roman House 296,Golders Green Road,"Golders Green, London",Greater London,NW11 9PT,Barnet London Boro,2087361100,Wilmington Healthcare Ltd,2023/3/1,-0.209552331,51.58050213
8416,8416,127483203,The London Clinic,5280371,Education and Health,Health Practitioners and Establishments,Hospitals,528439,182078,1,10092014650,osgb1000005295988,8,8400408,1,85,The London Clinic Consulting Rooms 149,Harley Street,London,Greater London,W1G 6DE,City of Westminster London Boro,2079354444,Wilmington Healthcare Ltd,2023/3/1,-0.150050624,51.5230236
8417,8417,127483208,Mildmay Mission Hospital,5280371,Education and Health,Health Practitioners and Establishments,Hospitals,533590,182733,1,6196209,osgb5000005136100940,1,22702747,1,12.2,19,Tabernacle Gardens,London,Greater London,E2 7DZ,Tower Hamlets London Boro,2076136300,Wilmington Healthcare Ltd,2023/3/1,-0.07559892,51.52771576
8420,8420,127482651,Syon Clinic,5280371,Education and Health,Health Practitioners and Establishments,Hospitals,516461,177407,1,1.00024E+11,osgb1000003181678,4,21505052,1,25.3,941,Great West Road,Brentford,Greater London,TW8 9DU,Hounslow London Boro,2083226000,Wilmington Healthcare Ltd,2023/3/1,-0.324161906,51.4836354
8421,8421,127482652,Paul Strickland Scanner Centre,5280371,Education and Health,Health Practitioners and Establishments,Hospitals,507642.3,191775.2,1,1.00023E+11,osgb1000041972257,10,21401630,1,331.7,,Rickmansworth Road,Northwood,Greater London,HA6 2RN,Hillingdon London Boro,1923844630,Wilmington Healthcare Ltd,2023/3/1,-0.446720827,51.61452617
8422,8422,127482721,Blackheath Hospital Outpatient Suite,5280371,Education and Health,Health Practitioners and Establishments,Hospitals,539603.6,175961.2,1,1.00024E+11,osgb1000041834990,4,22000550,1,18.3,Bmi Healthcare,Independents Road,London,Greater London,SE3 9LF,Lewisham London Boro,2082974500,Wilmington Healthcare Ltd,2023/3/1,0.008356493,51.46541015
8424,8424,127482727,Optegra Eye Hospital North London,5280371,Education and Health,Health Practitioners and Establishments,Hospitals,521062.1,189610.7,1,200148114,osgb1000003740853,3,20009900,1,30.1,Unit 6 Technology Park,Colindeep Lane,"Colindale, London",Greater London,NW9 6BX,Barnet London Boro,2082058003,Wilmington Healthcare Ltd,2023/3/1,-0.253735633,51.59235059
8425,8425,127482792,Nightingale Hospital,5280371,Education and Health,Health Practitioners and Establishments,Hospitals,527380,181926,1,,osgb1000042197133,5,8400016,3,9,11月19日,Lisson Grove,London,Greater London,NW1 6SH,City of Westminster London Boro,2075357700,Wilmington Healthcare Ltd,2023/3/1,-0.165361745,51.52189716
8426,8426,127482793,Edward House Outpatient Clinic,5280371,Education and Health,Health Practitioners and Establishments,Hospitals,527405,181897,1,1.00023E+11,osgb1000042197132,2,8400993,1,20.8,7,Lisson Grove,London,Greater London,NW1 6SH,City of Westminster London Boro,2075357900,Wilmington Healthcare Ltd,2023/3/1,-0.165012079,51.52163091
8427,8427,127482995,Alliance Medical Imaging Centre,5280371,Education and Health,Health Practitioners and Establishments,Hospitals,528415,181551,1,1.00023E+11,osgb1000005293664,3,8400303,1,19.9,10月11日,Bulstrode Place,London,Greater London,W1U 2HX,City of Westminster London Boro,2079357711,Wilmington Healthcare Ltd,2023/3/1,-0.150588344,51.51829293
8431,8431,127482660,The Centre for Reproductive & Genetic Health,5280371,Education and Health,Health Practitioners and Establishments,Hospitals,528878,182084,1,1.00023E+11,osgb1000005296421,2,8400603,1,18.3,230-232,Great Portland Street,London,Greater London,W1W 5QS,City of Westminster London Boro,2078372905,Wilmington Healthcare Ltd,2023/3/1,-0.143724165,51.52297762
8437,8437,127482663,Harley Street at UCH,5280371,Education and Health,Health Practitioners and Establishments,Hospitals,529347,182309,1,5124020,osgb1000001787249633,6,20400889,1,29.1,235,Euston Road,London,Greater London,WC1E 6AS,Camden London Boro,2034471700,Wilmington Healthcare Ltd,2023/3/1,-0.136885177,51.52489257
8438,8438,127482665,The Platinum Medical Centre,5280371,Education and Health,Health Practitioners and Establishments,Hospitals,527133,182690,1,1.00023E+11,osgb1000005157721,5,8400498,2,15.7,15-17,Lodge Road,London,Greater London,NW8 7JA,City of Westminster London Boro,2032143600,Wilmington Healthcare Ltd,2023/3/1,-0.168644401,51.52881885
8439,8439,127482736,City Fertility,5280371,Education and Health,Health Practitioners and Establishments,Hospitals,531817,181851,1,5300084450,osgb1000005731822,6,21606010,1,15,16,St John Street,"Islington, London",Greater London,EC1M 4NT,Islington London Boro,2082093226,Wilmington Healthcare Ltd,2023/3/1,-0.101472779,51.52020616
8440,8440,127482738,London Eye Hospital,5280371,Education and Health,Health Practitioners and Establishments,Hospitals,528564,181636,1,1.00023E+11,osgb1000005293075,5,8400289,1,12,29a,Wimpole Street,London,Greater London,W1G 8GP,City of Westminster London Boro,8006122021,Wilmington Healthcare Ltd,2023/3/1,-0.148411061,51.51902296
8441,8441,127482740,Harley Street Clinic - Cardiac Outpatients Centre,5280371,Education and Health,Health Practitioners and Establishments,Hospitals,528631,181801,1,1.00023E+11,osgb1000005292711,5,8400408,1,15.1,88,Harley Street,London,Greater London,W1G 7HR,City of Westminster London Boro,2076314033,Wilmington Healthcare Ltd,2023/3/1,-0.147385734,51.52049057
8442,8442,127482805,Harley Street Clinic,5280371,Education and Health,Health Practitioners and Establishments,Hospitals,528577,181785,1,10033570169,osgb1000005292750,9,8401612,1,12.8,35,Weymouth Street,London,Greater London,W1G 7EE,City of Westminster London Boro,2079357700,Wilmington Healthcare Ltd,2023/3/1,-0.148169456,51.52035906
8443,8443,127482904,The Sloane Hospital,5280371,Education and Health,Health Practitioners and Establishments,Hospitals,538895,169590,1,1.00023E+11,osgb1000042359975,8,20301599,1,47.7,125,Albemarle Road,Beckenham,Greater London,BR3 5HS,Bromley London Boro,2084666911,Wilmington Healthcare Ltd,2023/3/1,-0.00433424,51.40833121
8444,8444,127482905,Bishops Wood Hospital,5280371,Education and Health,Health Practitioners and Establishments,Hospitals,507653,191990,1,1.00023E+11,osgb1000041972272,12,21401630,1,203.1,,Rickmansworth Road,Northwood,Greater London,HA6 2JW,Hillingdon London Boro,1923835814,Wilmington Healthcare Ltd,2023/3/1,-0.446500418,51.61645482
8445,8445,127483012,The London Clinic,5280371,Education and Health,Health Practitioners and Establishments,Hospitals,528581,181954,1,1.00023E+11,osgb1000001787346008,2,8400408,1,14,116,Harley Street,London,Greater London,W1G 7JL,City of Westminster London Boro,2079354444,Wilmington Healthcare Ltd,2023/3/1,-0.148050191,51.52187694
8447,8447,129797441,The Outpatient & Diagnostic Centre,5280371,Education and Health,Health Practitioners and Establishments,Hospitals,532890,180126,1,2.00003E+11,osgb5000005102842344,2,22501374,3,19.7,The Shard,St. Thomas Street,London,Greater London,SE1 9BS,Southwark London Boro,2038117848,Wilmington Healthcare Ltd,2023/3/1,-0.086666424,51.50445301
8448,8448,127482672,Southleigh Community Rehabilitation Hospital,5280371,Education and Health,Health Practitioners and Establishments,Hospitals,532451,164355,1,1.00021E+11,osgb1000001766198325,1,20501945,1,45.4,42,Brighton Road,South Croydon,Greater London,CR2 6AA,Croydon London Boro,2086660400,Wilmington Healthcare Ltd,2023/3/1,-0.09888087,51.36282641
8449,8449,127482809,Highgate Hospital,5280371,Education and Health,Health Practitioners and Establishments,Hospitals,527809,188020,1,10003978265,osgb1000005168676,7,21100891,1,35.3,17-19,View Road,"Hornsey, London",Greater London,N6 4DJ,Haringey London Boro,2083414182,Wilmington Healthcare Ltd,2023/3/1,-0.156969264,51.57656641
8450,8450,127482811,Princess Grace Hospital,5280371,Education and Health,Health Practitioners and Establishments,Hospitals,528242.9,182000.2,1,1.00023E+11,osgb1000005293922,8,8401484,1,19.3,42-52,Nottingham Place,London,Greater London,W1U 5NY,City of Westminster London Boro,2074861234,Wilmington Healthcare Ltd,2023/3/1,-0.152903974,51.52236893
8451,8451,127482909,Hendon Hospital,5280371,Education and Health,Health Practitioners and Establishments,Hospitals,523077.8,189810.9,1,200110947,osgb1000003934248,4,20041580,1,19.8,46-50,Sunny Gardens Road,"Hendon, London",Greater London,NW4 1RP,Barnet London Boro,2084574500,Wilmington Healthcare Ltd,2023/3/1,-0.224581409,51.59371389
8454,8454,127482675,The London Clinic - Eye Centre,5280371,Education and Health,Health Practitioners and Establishments,Hospitals,528548,181943,1,1.00023E+11,osgb1000005292414,4,8400408,1,20.8,119,Harley Street,London,Greater London,W1G 6AU,City of Westminster London Boro,2079354444,Wilmington Healthcare Ltd,2023/3/1,-0.148529592,51.52178559
8455,8455,127482676,The CyberKnife Centre London,5280371,Education and Health,Health Practitioners and Establishments,Hospitals,528611,181746,1,10033536160,osgb1000005292747,4,8400408,1,20.3,81-83,Harley Street,London,Greater London,W1G 8PP,City of Westminster London Boro,2070348588,Wilmington Healthcare Ltd,2023/3/1,-0.147693905,51.52000084
8456,8456,127482815,The Lister Hospital,5280371,Education and Health,Health Practitioners and Establishments,Hospitals,528512,178018,1,1.00023E+11,osgb1000005286279,10,8400724,1,18.5,,Chelsea Bridge Road,London,Greater London,SW1W 8RH,City of Westminster London Boro,2077307733,Wilmington Healthcare Ltd,2023/3/1,-0.150477588,51.48651999
8457,8457,127482917,Chelsfield Park Hospital,5280371,Education and Health,Health Practitioners and Establishments,Hospitals,548495,164313,1,1.00023E+11,osgb1000000079233,5,20300719,1,135.8,,Bucks Cross Road,Orpington,Greater London,BR6 7RG,Bromley London Boro,1689877855,Wilmington Healthcare Ltd,2023/3/1,0.131391204,51.35848633
8458,8458,127482919,Oryon Imaging,5280371,Education and Health,Health Practitioners and Establishments,Hospitals,528617,181458,1,10091964528,osgb1000005294205,8,8400289,2,9.4,Lister House 11-12,Wimpole Street,London,Greater London,W1G 9ST,City of Westminster London Boro,2074678800,Wilmington Healthcare Ltd,2023/3/1,-0.147712539,51.51741124
8463,8463,127482821,Hospital of St John & St Elizabeth,5280371,Education and Health,Health Practitioners and Establishments,Hospitals,526649,183196,1,10033564047,osgb1000004335739,13,8400525,1,24.4,60,Grove End Road,London,Greater London,NW8 9NH,City of Westminster London Boro,2078064000,Wilmington Healthcare Ltd,2023/3/1,-0.175436053,51.53347495
8464,8464,127482824,The Clementine Churchill Hospital,5280371,Education and Health,Health Practitioners and Establishments,Hospitals,515663.4,186437.8,1,10002294380,osgb5000005131375746,2,21201269,1,206.3,,Sudbury Hill,Harrow,Greater London,HA1 3RX,Harrow London Boro,2088723872,Wilmington Healthcare Ltd,2023/3/1,-0.332681126,51.56496589
8465,8465,127482922,Parkside Hospital,5280371,Education and Health,Health Practitioners and Establishments,Hospitals,523563,172247,1,48055455,osgb1000041395984,5,22104983,1,45.5,53,Parkside,"Wimbledon, London",Greater London,SW19 5NX,Merton London Boro,2089718000,Wilmington Healthcare Ltd,2023/3/1,-0.223733093,51.4357554
8467,8467,125911083,The Barts Heart Centre,5280371,Education and Health,Health Practitioners and Establishments,Hospitals,531900,181580,1,1.00024E+11,osgb1000005731995,6,8100565,1,51.1,St Bartholomews Hospital,West Smithfield,London,Greater London,EC1A 7BE,City and County of the City of London,2073777000,Wilmington Healthcare Ltd,2023/3/1,-0.100378559,51.5177514
8470,8470,127482830,Spire St Anthony's Hospital,5280371,Education and Health,Health Practitioners and Establishments,Hospitals,523887,166027,1,5870119242,osgb1000042046013,13,22601662,1,153.2,St Marys Ward St Anthonys Hospital 801,London Road,North Cheam,Greater London,SM3 9DW,Sutton London Boro,2083376691,Wilmington Healthcare Ltd,2023/3/1,-0.221244474,51.37978323
8471,8471,127482833,The Blackheath Hospital,5280371,Education and Health,Health Practitioners and Establishments,Hospitals,539466,175742,1,1.00023E+11,osgb1000041835721,12,22000612,1,26.5,40-42,Lee Terrace,London,Greater London,SE3 9UD,Lewisham London Boro,2083187722,Wilmington Healthcare Ltd,2023/3/1,0.006290547,51.46347427
8472,8472,127482933,The New Victoria Hospital,5280371,Education and Health,Health Practitioners and Establishments,Hospitals,521494,169965,1,128005078,osgb1000041384481,18,21800276,1,62.9,182-184,Coombe Lane West,Kingston-upon-Thames,Greater London,KT2 7EG,Kingston upon Thames London Boro,2089499000,Wilmington Healthcare Ltd,2023/3/1,-0.254266244,51.41569304
8473,8473,127483037,BUPA Health Centre,5280371,Education and Health,Health Practitioners and Establishments,Hospitals,532561.8,181324.3,1,95509897,osgb1000001802834353,2,8100255,1,35.7,95,Gresham Street,London,Greater London,EC2V 7NA,City and County of the City of London,2072002700,Wilmington Healthcare Ltd,2023/3/1,-0.090942117,51.51529869
8474,8474,127482835,Royal Hospital for Neuro-Disability,5280371,Education and Health,Health Practitioners and Establishments,Hospitals,524215,174093,1,121004807,osgb1000041408198,8,22906045,1,51.9,101-119,West Hill,London,Greater London,SW15 3SW,Wandsworth London Boro,2087804500,Wilmington Healthcare Ltd,2023/3/1,-0.213710913,51.4522038
8475,8475,127482838,The Portland Hospital,5280371,Education and Health,Health Practitioners and Establishments,Hospitals,528835,182077,1,10033525206,osgb1000005296419,2,8400603,1,24.9,209,Great Portland Street,London,Greater London,W1W 5AH,City of Westminster London Boro,2075804400,Wilmington Healthcare Ltd,2023/3/1,-0.144346184,51.52292451
8479,8479,127482851,The London Independent Hospital,5280371,Education and Health,Health Practitioners and Establishments,Hospitals,535615,181973,1,6032961,osgb1000041685579,3,22700139,1,26.5,1,Beaumont Square,London,Greater London,E1 4NL,Tower Hamlets London Boro,2077802400,Wilmington Healthcare Ltd,2023/3/1,-0.046717499,51.52040365
8480,8480,127482852,King Edward VII Hospital,5280371,Education and Health,Health Practitioners and Establishments,Hospitals,528428,181828,1,10033529930,osgb1000005293766,3,8401108,1,14.5,5月10日,Beaumont Street,London,Greater London,W1G 6AA,City of Westminster London Boro,2074864411,Wilmington Healthcare Ltd,2023/3/1,-0.150300176,51.52077936
8481,8481,127483168,Cancer Centre London,5280371,Education and Health,Health Practitioners and Establishments,Hospitals,523571,172040,1,48055430,osgb1000041395630,4,22104983,1,40.6,49,Parkside,"Wimbledon, London",Greater London,SW19 5NB,Merton London Boro,2082473351,Wilmington Healthcare Ltd,2023/3/1,-0.223690189,51.43389325
8653,8653,158419328,City of London Medical Centre,5280371,Education and Health,Health Practitioners and Establishments,Hospitals,533608,180958,1,95511695,osgb1000006032694,5,8100161,1,19.9,Medical Centre 11-13,Crosswall,London,Greater London,EC3N 2JY,City and County of the City of London,2074885060,Wilmington Healthcare Ltd,2023/3/1,-0.076012324,51.51176055
8749,8749,160734535,The Royal National ENT & Eastman Dental Hospitals,5280371,Education and Health,Health Practitioners and Establishments,Hospitals,529527,182025,1,5087448,osgb5000005275282507,2,20400955,2,27.1,47-49,Huntley Street,London,Greater London,WC1E,Camden London Boro,2034467890,Wilmington Healthcare Ltd,2023/3/1,-0.134396362,51.52229909
8754,8754,159451627,OneWelbeck,5280371,Education and Health,Health Practitioners and Establishments,Hospitals,528594,181321,1,1.00023E+11,osgb1000005294269,6,8401048,1,39.9,1,Welbeck Street,London,Greater London,W1U,City of Westminster London Boro,2036375820,Wilmington Healthcare Ltd,2023/3/1,-0.148093804,51.51618526
8822,8822,162721991,LOC - Leaders in Oncology Care,5280371,Education and Health,Health Practitioners and Establishments,Hospitals,528589,181830,1,1.00023E+11,osgb1000005292555,4,8400408,2,16.1,95,Harley Street,London,Greater London,W1G 6AF,City of Westminster London Boro,2073172500,Wilmington Healthcare Ltd,2023/3/1,-0.147980178,51.52076074
8845,8845,162722129,NHS Nightingale Hospital London,5280371,Education and Health,Health Practitioners and Establishments,Hospitals,540898,180751,1,46252014,osgb1000001811123620,7,22207993,1,226.8,"1, Western Gateway",Canning Town,London,Greater London,E16 1XL,Newham London Boro,,Wilmington Healthcare Ltd,2023/3/1,0.028889323,51.50813051
8890,8890,161673567,The UCH Macmillan Cancer Centre,5280371,Education and Health,Health Practitioners and Establishments,Hospitals,529474,182116,1,5163365,osgb5000005103245060,1,20400955,1,17.7,The Uclh Cancer Centre,Huntley Street,London,Greater London,WC1E 6AG,Camden London Boro,2034471700,Wilmington Healthcare Ltd,2023/3/1,-0.13512644,51.52312903
8907,8907,166099074,Priory Wellbeing Centre Harley Street,5280371,Education and Health,Health Practitioners and Establishments,Hospitals,528674,181562,1,1.00023E+11,osgb1000005293038,7,8400408,1,15.2,41,Harley Street,London,Greater London,W1G 8QH,City of Westminster London Boro,808238027,Wilmington Healthcare Ltd,2023/3/1,-0.146853538,51.51833291
8921,8921,164210940,InHealth Diagnostics Centre,5280371,Education and Health,Health Practitioners and Establishments,Hospitals,516934,180532,1,12134117,osgb1000001778937257,4,20602315,1,28,Lovelace House 96-122,Uxbridge Road,West Ealing,Greater London,W13 8RD,Ealing London Boro,3332023188,Wilmington Healthcare Ltd,2023/3/1,-0.31631795,51.51162474
8962,8962,164797295,Harley Street Specialist Hospital,5280371,Education and Health,Health Practitioners and Establishments,Hospitals,528663,181547,1,10033602164,osgb5000005259339139,1,8401503,1,16.3,18-22,Queen Anne Street,London,Greater London,W1G 8HU,City of Westminster London Boro,2045132244,Wilmington Healthcare Ltd,2023/3/1,-0.147017463,51.51820061
8975,8975,168649532,Cleveland Clinic London,5280371,Education and Health,Health Practitioners and Establishments,Hospitals,528586,179438,1,1.00023E+11,osgb1000005288377,7,8400099,1,54.8,33,Grosvenor Place,London,Greater London,SW1X 7HY,City of Westminster London Boro,2034237500,Wilmington Healthcare Ltd,2023/3/1,-0.148895386,51.49926465
8976,8976,168649533,Portland Place Outpatients Centre,5280371,Education and Health,Health Practitioners and Establishments,Hospitals,528855,181681,1,1.00023E+11,osgb1000005293140,4,8400143,1,20,24,Portland Place,London,Greater London,W1B 1LU,City of Westminster London Boro,2034237500,Wilmington Healthcare Ltd,2023/3/1,-0.144202815,51.51936114
8991,8991,166099067,University College Hosptal,5280371,Education and Health,Health Practitioners and Establishments,Hospitals,529406,182206,1,5135658,osgb5000005275282556,3,20400939,2,18.4,Grafton Way Building,1 Grafton Way,London,Greater London,WC1E 6AS,Camden London Boro,2034567890,Wilmington Healthcare Ltd,2023/3/1,-0.136073006,51.52395342
10925,10925,19938248,Lavender Hill Police Station,6330422,Public Infrastructure,Central and Local Government,Police Stations,527761,175569,1,1.00023E+11,osgb1000041643128,3,22902838,1,26.9,Lavender Hill Police Station Police 176,Lavender Hill,London,Greater London,SW11 1JX,Wandsworth London Boro,3001231212,London Metropolitan Police,2023/3/1,-0.162172247,51.46468086
10926,10926,19938251,Hornsey Police Station,6330422,Public Infrastructure,Central and Local Government,Police Stations,530642,189015,1,1.00023E+11,osgb1000005602139,9,21104005,1,18,Hornsey Police Station 98,Tottenham Lane,"Hornsey, London",Greater London,N8 7EJ,Haringey London Boro,3001231212,London Metropolitan Police,2023/3/1,-0.115740131,51.5848592
10927,10927,19938264,Twickenham Police Station,6330422,Public Infrastructure,Central and Local Government,Police Stations,516191,173423,1,1.00023E+11,osgb1000003171876,5,22403635,1,36,Twickenham Police Station 41,London Road,Twickenham,Greater London,TW1 3SY,Richmond upon Thames London Boro,3001231212,London Metropolitan Police,2023/3/1,-0.329356541,51.44788339
10928,10928,19938266,Stratford Police Station,6330422,Public Infrastructure,Central and Local Government,Police Stations,539076,184153,1,10008993520,osgb1000006736154,4,22201662,1,19,Stratford Police Station 18,West Ham Lane,"Stratford, London",Greater London,E15 4SG,Newham London Boro,3001231212,London Metropolitan Police,2023/3/1,0.00399494,51.5391526
10929,10929,19938267,Southall Police Station,6330422,Public Infrastructure,Central and Local Government,Police Stations,513072,180378,1,12039467,osgb1000002902789,3,20602250,1,30.3,Police Station 67,High Street,Southall,Greater London,UB1 3HG,Ealing London Boro,3001231212,London Metropolitan Police,2023/3/1,-0.37199624,51.51102583
10930,10930,19938271,Plaistow Police Station,6330422,Public Infrastructure,Central and Local Government,Police Stations,540583,182403,1,10009001584,osgb1000041850970,6,22208079,1,24.3,Plaistow Police Station 444,Barking Road,"Plaistow, London",Greater London,E13 8HJ,Newham London Boro,3001231212,London Metropolitan Police,2023/3/1,0.025011916,51.52305391
10931,10931,19938219,Worcester Park Police Station,6330422,Public Infrastructure,Central and Local Government,Police Stations,522362,165966,1,5870003969,osgb1000041938494,3,22601354,1,21.9,Police Station 154,Central Road,Worcester Park,Greater London,KT4 8HH,Sutton London Boro,3001231212,London Metropolitan Police,2023/3/1,-0.243167312,51.37956538
10932,10932,19938221,West Wickham Police Station,6330422,Public Infrastructure,Central and Local Government,Police Stations,538238,165937,1,1.00024E+11,osgb1000042353152,3,20301748,1,17.1,9,High Street,West Wickham,Greater London,BR4 0LP,Bromley London Boro,1689891212,London Metropolitan Police,2023/3/1,-0.015194553,51.37566548
10933,10933,19938223,West End Central Police Station,6330422,Public Infrastructure,Central and Local Government,Police Stations,529081.9,180818.8,1,1.00023E+11,osgb1000042219387,4,8401550,1,15.1,"West End Central Police Station, 27",Savile Row,London,Greater London,W1S,City of Westminster London Boro,3001231212,London Metropolitan Police,2023/3/1,-0.141249962,51.51156087
10934,10934,19938225,Wandsworth Police Station,6330422,Public Infrastructure,Central and Local Government,Police Stations,525255,174679,1,121008802,osgb5000005112286528,1,22905902,1,90.1,Wandsworth Police Station 146,Wandsworth High Street,London,Greater London,SW18 4JJ,Wandsworth London Boro,3001231212,London Metropolitan Police,2023/3/1,-0.19854395,51.45724161
10935,10935,19938230,Stoke Newington Police Station,6330422,Public Infrastructure,Central and Local Government,Police Stations,533557.7,186086.4,1,1.00023E+11,osgb1000006052996,5,20900977,1,25.9,Stoke Newington Police Station 33,Stoke Newington High Street,"Hackney, London",Greater London,N16 8DR,Hackney London Boro,3001231212,London Metropolitan Police,2023/3/1,-0.074793075,51.55785822
10936,10936,19938239,Plumstead Police Station,6330422,Public Infrastructure,Central and Local Government,Police Stations,545609,178480,1,1.00023E+11,osgb1000007369063,5,20801187,1,17.6,Plumstead Police Station 200,Plumstead High Street,Plumstead,Greater London,SE18 1JY,Greenwich London Boro,3001231212,London Metropolitan Police,2023/3/1,0.095787706,51.48653106
10937,10937,19938241,Paddington Green Police Station,6330422,Public Infrastructure,Central and Local Government,Police Stations,526970,181757,1,10033536229,osgb1000042173937,2,8400530,1,45,Paddington Green Police Station 4,Harrow Road,London,Greater London,W2 1XJ,City of Westminster London Boro,3001231212,London Metropolitan Police,2023/3/1,-0.171329052,51.52047058
10938,10938,19938242,Notting Hill Police Station,6330422,Public Infrastructure,Central and Local Government,Police Stations,524791.4,180387.8,1,217049679,osgb1000042121413,4,21700915,1,17.2,Notting Hill Police Station 101,Ladbroke Road,London,Greater London,W11 3PL,Kensington and Chelsea London Boro,3001231212,London Metropolitan Police,2023/3/1,-0.203197846,51.50865033
10944,10944,19938290,Charing Cross Police Station,6330422,Public Infrastructure,Central and Local Government,Police Stations,530240,180651,1,1.00023E+11,osgb1000005574326,6,8400736,1,13.2,Charing Cross Police Station,Agar Street,London,Greater London,WC2N 4HN,City of Westminster London Boro,3001231212,London Metropolitan Police,2023/3/1,-0.12463258,51.50978739
10945,10945,19938292,Ilford Police Station,6330422,Public Infrastructure,Central and Local Government,Police Stations,544310,186652,1,10034922099,osgb1000007196600,6,22306010,1,11.2,"Ilford Police Station, 270-294",High Road,Ilford,Greater London,IG1 1GT,Redbridge London Boro,3001231212,London Metropolitan Police,2023/3/1,0.080435676,51.560294
10946,10946,19938295,Mitcham Police Station,6330422,Public Infrastructure,Central and Local Government,Police Stations,527648.6,168329.9,1,48019012,osgb1000005110366,3,22101716,1,23.9,Police Station 58,Cricket Green,Mitcham,Greater London,CR4 4LA,Merton London Boro,3001231212,London Metropolitan Police,2023/3/1,-0.166395584,51.39964699
10947,10947,19938296,Hayes Police Station,6330422,Public Infrastructure,Central and Local Government,Police Stations,508662.7,181857.5,1,1.00023E+11,osgb1000042675024,5,21402032,1,15.4,Hayes Police Station 755,Uxbridge Road,Hayes,Greater London,UB4 8HU,Hillingdon London Boro,3001231212,London Metropolitan Police,2023/3/1,-0.435054233,51.5251884
10948,10948,19938298,Colindale Police Station,6330422,Public Infrastructure,Central and Local Government,Police Stations,521914.4,190137.6,1,200220576,osgb1000003745197,6,20018500,1,34.2,Colindale Police Station,Grahame Park Way,"Grahame Park, London",Greater London,NW9 5TW,Barnet London Boro,3001231212,London Metropolitan Police,2023/3/1,-0.24125506,51.59690256
10949,10949,19938299,Hammersmith Police Station,6330422,Public Infrastructure,Central and Local Government,Police Stations,523364,178793,1,34026612,osgb5000005277107283,2,21000727,1,28.7,Hammersmith Police Station 226,Shepherd's Bush Road,London,Greater London,W6 7NX,Hammersmith and Fulham London Boro,3001231212,London Metropolitan Police,2023/3/1,-0.224312981,51.49463042
10950,10950,19938300,Barking Town Centre Police Station,6330422,Public Infrastructure,Central and Local Government,Police Stations,544344,183974,1,10023592987,osgb1000001811289602,13,19910309,3,44.1,Barking Learning Centre 2,Town Square,London,Greater London,IG11 7NB,Barking and Dagenham London Boro,3001231212,London Metropolitan Police,2023/3/1,0.079828451,51.53622219
10951,10951,19938303,Chiswick Police Station,6330422,Public Infrastructure,Central and Local Government,Police Stations,521022.8,178460.2,1,,osgb1000041506819,4,21500698,3,14.2,Chiswick Police Station 205-207,Chiswick High Road,London,Greater London,W4 2DU,Hounslow London Boro,3001231212,London Metropolitan Police,2023/3/1,-0.258135632,51.49214474
10952,10952,19938306,Enfield Police Station,6330422,Public Infrastructure,Central and Local Government,Police Stations,532917,196908,1,207182625,osgb1000005938545,4,20702494,1,38.1,Police Station 41,Baker Street,Enfield,Greater London,EN1 3EU,Enfield London Boro,3001231212,London Metropolitan Police,2023/3/1,-0.079930723,51.65525607
10953,10953,19938313,Holborn Police Station,6330422,Public Infrastructure,Central and Local Government,Police Stations,530710,181890,1,5029559,osgb1000005574844,3,20499045,1,28.3,Holborn Police Station 10,Lamb's Conduit Street,London,Greater London,WC1N 3NR,Camden London Boro,3001231212,London Metropolitan Police,2023/3/1,-0.117404557,51.52081362
10954,10954,19938314,Holloway Police Station,6330422,Public Infrastructure,Central and Local Government,Police Stations,530633,186485,1,5300050578,osgb1000005591422,9,21603387,1,12.5,Holloway Police Station 284,Hornsey Road,"Islington, London",Greater London,N7 7QY,Islington London Boro,3001231212,London Metropolitan Police,2023/3/1,-0.116809335,51.56212543
10955,10955,19938315,Kilburn Police Station,6330422,Public Infrastructure,Central and Local Government,Police Stations,524583,183285,1,202046411,osgb1000042130694,2,20201933,1,30,38,Salusbury Road,London,Greater London,NW6,Brent London Boro,3001231212,London Metropolitan Police,2023/3/1,-0.205175225,51.53473402
10956,10956,19938324,Peckham Police Station,6330422,Public Infrastructure,Central and Local Government,Police Stations,534489,176826,1,2.00003E+11,osgb1000006163479,6,22501921,1,44,Peckham Police Station 177,Peckham High Street,London,Greater London,SE15 5SL,Southwark London Boro,3001231212,London Metropolitan Police,2023/3/1,-0.064898003,51.47441938
10957,10957,19938328,Teddington Police Station,6330422,Public Infrastructure,Central and Local Government,Police Stations,515851.6,170854.8,1,1.00023E+11,osgb1000003066960,6,22403720,1,25.5,Teddington Police Station 18,Park Road,Teddington,Greater London,TW11 0AQ,Richmond upon Thames London Boro,3001231212,London Metropolitan Police,2023/3/1,-0.335078217,51.42487073
10958,10958,19938331,Walworth Police Station,6330422,Public Infrastructure,Central and Local Government,Police Stations,532183,178415,1,2.00003E+11,osgb1000005886797,8,22501649,1,14,12月28日,Manor Place,London,Greater London,SE17 3BB,Southwark London Boro,3001231212,London Metropolitan Police,2023/3/1,-0.097487649,51.48924241
10959,10959,19938337,Barnet Police Station,6330422,Public Infrastructure,Central and Local Government,Police Stations,524740.5,196394,1,200221127,osgb1000042138568,4,20022440,1,18.5,26-32,High Street,Barnet,Greater London,EN5 5RU,Barnet London Boro,3001231212,London Metropolitan Police,2023/3/1,-0.19824931,51.65250945
